  {
    "results": [ 
      {"uuid":"ABT-00003","municipality":"Abrantes","address":"A23 - Sublanço Abrantes / Mouriscas (Sentido Oeste/Este)","localization":"Área De Serviço Abrantes (Sentido Oeste/Este)","postal":"2204-906","latitude":"39.484883","longitude":"-8.15503","socket_number":"3","socket_type":"Rápido"},
  {"uuid":"ABT-00002","municipality":"Abrantes","address":"A23 - Sublanço Abrantes / Mouriscas (Sentido Este/Oeste)","localization":"Área De Serviço Abrantes (Sentido Este/Oeste)","postal":"2204-906","latitude":"39.486109","longitude":"-8.159092","socket_number":"3","socket_type":"Rápido"}
  ,{"uuid":"ABT-00001","municipality":"Abrantes","address":"Largo 1º De Maio","localization":"-","postal":"-","latitude":"39.4587","longitude":"-8.1998","socket_number":"2","socket_type":"Normal"},
  {"uuid":"AGD-00001","municipality":"Águeda","address":"Rua Joaquim Francisco Oliveira","localization":"-","postal":"3750-144","latitude":"40.577273","longitude":"-8.444696","socket_number":"2","socket_type":"Normal"},
  {"uuid":"AGB-00001","municipality":"Aguiar Da Beira","address":"Av. Da Liberdade","localization":"-","postal":"-","latitude":"40.8179444","longitude":"-7.54130556","socket_number":"2","socket_type":"Normal"},
  {"uuid":"ADL-00001","municipality":"Alandroal","address":"Rua Do Rodo","localization":"-","postal":"7250-133","latitude":"38.7027222","longitude":"-7.40508333","socket_number":"2","socket_type":"Normal"},
  {"uuid":"ALB-00001","municipality":"Albergaria-A-Velha","address":"Rua Dr. Flausino Correia","localization":"-","postal":"3850-054","latitude":"40.687","longitude":"-8.48052778","socket_number":"2","socket_type":"Normal galp"},
  {"uuid":"ABF-00008","municipality":"Albufeira","address":"Rua Do Município. Lote 26","localization":"Vila Galé, Rua Do Município. Lt 26, Albufeira","postal":"8200-916","latitude":"37.090499","longitude":"-8.244017","socket_number":"1","socket_type":"Normal"},
  {"uuid":"ABF-00009","municipality":"Albufeira","address":"Rua Do Município. Lote 26","localization":"Vila Galé, Rua Do Município. Lt 26, Albufeira","postal":"8200-916","latitude":"37.090498","longitude":"-8.244016","socket_number":"1","socket_type":"Normal"},
  {"uuid":"ABF-00002","municipality":"Albufeira","address":"Sitio Pedra Escorregar, 9720","localization":"Loja Tibi - Guia","postal":"8200-421","latitude":"37.123742","longitude":"-8.300047","socket_number":"2","socket_type":"Normal"},
  {"uuid":"ABF-00001","municipality":"Albufeira","address":"Rua Manuel Teixeira Gomes","localization":"-","postal":"8200-269","latitude":"37.096825","longitude":"-8.224503","socket_number":"2","socket_type":"Normal"},
  {"uuid":"ABF-00007","municipality":"Albufeira","address":"Alameda Da Orada (Marina De_x000D_ Albufeira)","localization":"-","postal":"-","latitude":"37.085689","longitude":"-8.266297","socket_number":"2","socket_type":"Normal"},
  {"uuid":"ABF-00012","municipality":"Albufeira","address":"Lugar Valverde - Tavagueira, Guia","localization":"Makro Albufeira","postal":"8200-856","latitude":"37.129263","longitude":"-8.282082","socket_number":"2","socket_type":"Normal galp"},
  {"uuid":"ABF-00013","municipality":"Albufeira","address":"Lugar Valverde - Tavagueira, Guia","localization":"Makro Albufeira","postal":"8200-856","latitude":"37.129264","longitude":"-8.282083","socket_number":"2","socket_type":"Normal galp"},
  {"uuid":"ASL-00002","municipality":"Alcácer Do Sal","address":"A2 Km 68 (Sentido Sul/Norte)","localization":"A.s. Alcácer Do Sal (N/S)","postal":"7580-000","latitude":"38.5152","longitude":"-8.58456","socket_number":"Carrega 1 VE em DC ou AC","socket_type":"Rápido galp"},
  {"uuid":"ASL-00001","municipality":"Alcácer Do Sal","address":"A2 Km 68 (Sentido Norte/Sul)","localization":"A.s. Alcácer Do Sal (S/N)","postal":"7580-000","latitude":"38.5158","longitude":"-8.58615","socket_number":"Carrega 1 VE em DC ou AC","socket_type":"Rápido galp"},
  {"uuid":"ASL-00003","municipality":"Alcácer Do Sal","address":"Parque Alcacer Do Sal","localization":"-","postal":"-","latitude":"38.3692778","longitude":"-8.51075","socket_number":"2","socket_type":"Normal"},
  {"uuid":"ACN-00002","municipality":"Alcanena","address":"Avenida Marquês De Pombal Lugar Do Peral","localization":"Intermarché Alcanena","postal":"2380-180","latitude":"39.463109","longitude":"-8.65772","socket_number":"2","socket_type":"Normal"},
  {"uuid":"ACN-00001","municipality":"Alcanena","address":"Rua Zeca Afonso","localization":"-","postal":"-","latitude":"39.4568611","longitude":"-8.66841667","socket_number":"2","socket_type":"Normal"},
  {"uuid":"ACB-00001","municipality":"Alcobaça","address":"Praça João De Deus Ramos","localization":"-","postal":"2640-055","latitude":"39.5519806","longitude":"-8.97562222","socket_number":"2","socket_type":"Normal"},
  {"uuid":"ACH-00001","municipality":"Alcochete","address":"Av. 5 De Outubro 16","localization":"Continente Bom Dia - Alcochete","postal":"2890-013","latitude":"38.751141","longitude":"-8.961475","socket_number":"2","socket_type":"Normal"},
  {"uuid":"ACH-00003","municipality":"Alcochete","address":"Acesso Ponte Vasco Da Gama, Km 13,8 (S/N)","localization":"Posto Galp - Sul Ponte Vasco Da Gama (Sul/Norte)","postal":"2890-000","latitude":"38.725788","longitude":"-8.98711","socket_number":"Carrega 2 VE's em simultâneo (DC ou AC)","socket_type":"Rápido galp"},
  {"uuid":"ACH-00002","municipality":"Alcochete","address":"Acesso Ponte Vasco Da Gama, Km 13,8 (N/S)","localization":"Posto Galp - Sul Ponte Vasco Da Gama (Norte/Sul)","postal":"2890-000","latitude":"38.72584","longitude":"-8.98778","socket_number":"Carrega 2 VE's em simultâneo (DC ou AC)","socket_type":"Rápido galp"},
  {"uuid":"ACT-00001","municipality":"Alcoutim","address":"Rotunda 5 De Outubro","localization":"-","postal":"8970-067","latitude":"37.469003","longitude":"-7.473464","socket_number":"2","socket_type":"Normal"},
  {"uuid":"ACT-00002","municipality":"Alcoutim","address":"M1039 Rua Portas Do Laborato_x000D_ (Martim Longo)","localization":"-","postal":"-","latitude":"37.441681","longitude":"-7.770158","socket_number":"2","socket_type":"Normal"},
  {"uuid":"ALQ-00002","municipality":"Alenquer","address":"Quinta De Alcochel - N1","localization":"Intermarché Do Carregado","postal":"2580-491","latitude":"39.029226","longitude":"-8.981077","socket_number":"2","socket_type":"Normal"},
  {"uuid":"ALQ-00001","municipality":"Alenquer","address":"Av. 25 De Abril","localization":"-","postal":"-","latitude":"39.0508889","longitude":"-9.00383333","socket_number":"2","socket_type":"Normal"},
  {"uuid":"AFE-00001","municipality":"Alfândega Da Fé","address":"Rua. Eng. Manuel Cunha","localization":"-","postal":"5530-001","latitude":"41.3446972","longitude":"-6.96177222","socket_number":"2","socket_type":"Normal"},
  {"uuid":"ALJ-00001","municipality":"Alijó","address":"Av. Dr. Francisco Sá Carneiro","localization":"-","postal":"5070-013","latitude":"41.2759333","longitude":"-7.476875","socket_number":"2","socket_type":"Normal"},
  {"uuid":"AJZ-00001","municipality":"Aljezur","address":"Sítio Ribeiro, Santa Suzana Alfambra","localization":"-","postal":"8670-320","latitude":"37.434628","longitude":"-8.7687082","socket_number":"2","socket_type":"Normal"},
  {"uuid":"AJZ-00002","municipality":"Aljezur","address":"N120","localization":"-","postal":"-","latitude":"37.316597","longitude":"-8.802957","socket_number":"2","socket_type":"Normal"},
  {"uuid":"AJT-00001","municipality":"Aljustrel","address":"A2 Km 148 (Sentido Sul/Norte)","localization":"A.s. Aljustrel (S/N)","postal":"7600-204","latitude":"37.922961","longitude":"-8.241516","socket_number":"Carrega 1 VE em DC ou AC","socket_type":"Rápido galp"},
  {"uuid":"AJT-00002","municipality":"Aljustrel","address":"A2 Km 148 (Sentido Norte/Sul)","localization":"A.s. Aljustrel (N/S)","postal":"7600-204","latitude":"37.924281","longitude":"-8.243845","socket_number":"Carrega 1 VE em DC ou AC","socket_type":"Rápido galp"},
  {"uuid":"AJT-00003","municipality":"Aljustrel","address":"Av. Da Liberdade (Parque_x000D_ De Estacionamento)","localization":"-","postal":"7600-014","latitude":"37.8794555","longitude":"-8.1636284","socket_number":"2","socket_type":"Normal"},
  {"uuid":"AJT-00004","municipality":"Aljustrel","address":"R. Catarina Eufémia","localization":"-","postal":"7600-099","latitude":"37.8781389","longitude":"-8.16377778","socket_number":"2","socket_type":"Normal"},
  {"uuid":"ALM-00020","municipality":"Almada","address":"Praia Do Rei","localization":"Praia Do Rei (Costa Da Caparica)","postal":"2825-491","latitude":"38.60687","longitude":"-9.2101","socket_number":"2","socket_type":"Normal"},
  {"uuid":"ALM-00014","municipality":"Almada","address":"Praia Da Rainha","localization":"Praia Da Rainha (Costa Da Caparica)","postal":"2825-308","latitude":"38.61693","longitude":"-9.21659","socket_number":"2","socket_type":"Normal"},
  {"uuid":"ALM-00024","municipality":"Almada","address":"Rua Helena Félix","localization":"Charneca De Caparica","postal":"2820-266","latitude":"38.61761","longitude":"-9.19113","socket_number":"2","socket_type":"Normal"},
  {"uuid":"ALM-00012","municipality":"Almada","address":"Rua Catarina Eufémia","localization":"Costa Caparica-Cmia","postal":"2805-114","latitude":"38.647495","longitude":"-9.240781","socket_number":"2","socket_type":"Normal"},
  {"uuid":"ALM-00022","municipality":"Almada","address":"Avenida Da República","localization":"Escola Elias Garcia (Sobreda)","postal":"2815-800","latitude":"38.64839","longitude":"-9.18345","socket_number":"2","socket_type":"Normal"},
  {"uuid":"ALM-00026","municipality":"Almada","address":"Rua Joaquim Pires Jorge","localization":"Zona Industrial De Feijó","postal":"2810-083","latitude":"38.6545","longitude":"-9.16793","socket_number":"2","socket_type":"Normal"},
  {"uuid":"ALM-00007","municipality":"Almada","address":"Avenida Bento Gonçalves","localization":"Parque Ecalma - Luísa Sigeia","postal":"2805-099","latitude":"38.669353","longitude":"-9.165517","socket_number":"2","socket_type":"Normal"},
  {"uuid":"ALM-00021","municipality":"Almada","address":"Rua Abel Salazar","localization":"Almada Business Hotel","postal":"2805-313","latitude":"38.67035","longitude":"-9.17038","socket_number":"2","socket_type":"Normal"},
  {"uuid":"ALM-00023","municipality":"Almada","address":"Avenida Antonio Jose Gomes","localization":"Avenida António José Gomes (Cova Da Piedade)","postal":"2805-086","latitude":"38.67221","longitude":"-9.15604","socket_number":"2","socket_type":"Normal"},
  {"uuid":"ALM-00028","municipality":"Almada","address":"Avenida Da Liberdade","localization":"Extensão De Saúde Da Trafaria","postal":"2825-861","latitude":"38.67295","longitude":"-9.23217","socket_number":"2","socket_type":"Normal"},
  {"uuid":"ALM-00009","municipality":"Almada","address":"Rua Da Liberdade","localization":"Rua Da Liberdade","postal":"2805-353","latitude":"38.673725","longitude":"-9.161796","socket_number":"2","socket_type":"Normal"},
  {"uuid":"ALM-00006","municipality":"Almada","address":"Rua Frederico Pinheiro","localization":"Parque Ecalma - Bento Gonçalves","postal":"2800-689","latitude":"38.675459","longitude":"-9.166247","socket_number":"2","socket_type":"Normal"},
  {"uuid":"ALM-00003","municipality":"Almada","address":"Avenida Dom Nuno Álvares Pereira","localization":"Avenida D. Nuno Álvares Pereira","postal":"2800-179","latitude":"38.6791","longitude":"-9.15828","socket_number":"2","socket_type":"Normal"},
  {"uuid":"ALM-00005","municipality":"Almada","address":"Rua Leonel Duarte Ferreira","localization":"Parque Ecalma - Conde Ferreira","postal":"2800-138","latitude":"38.681372","longitude":"-9.160646","socket_number":"2","socket_type":"Normal"},
  {"uuid":"ALM-00004","municipality":"Almada","address":"Rua Capitão Leitão","localization":"Parque Ecalma - Capitão Leitão","postal":"2800-135","latitude":"38.681548","longitude":"-9.159578","socket_number":"2","socket_type":"Normal"},
  {"uuid":"ALM-00038","municipality":"Almada","address":"Rua António Andrade 214","localization":"Mcdonald's Charneca Da Caparica","postal":"2820-287","latitude":"38.613218","longitude":"-9.188989","socket_number":"2","socket_type":"Normal"},
  {"uuid":"ALM-00040","municipality":"Almada","address":"Lugar Da Regateira, Via L-3","localization":"Auto Posto 8600 - Comércio De Comb., Lda.","postal":"2820-194","latitude":"38.63584","longitude":"-9.19584","socket_number":"Carrega 1 VE em DC ou AC","socket_type":"Rápido galp"},
  {"uuid":"ALM-00008","municipality":"Almada","address":"Rua Dom Manuel I","localization":"Parque Ecalma - Laranjeiro","postal":"2810-259","latitude":"38.654575","longitude":"-9.152943","socket_number":"2","socket_type":"Normal"},
  {"uuid":"ALM-00035","municipality":"Almada","address":"Estrada Do Caminho Municipal","localization":"Centro Comercial Almada Forum","postal":"2810-354","latitude":"38.6593","longitude":"-9.17533","socket_number":"2","socket_type":"Normal"},
  {"uuid":"ALM-00036","municipality":"Almada","address":"Rua Sergio Malpique 2","localization":"Parque De Estacionamento Do Almada Fórum","postal":"2810-500","latitude":"38.659986","longitude":"-9.175478","socket_number":"2","socket_type":"Normal"},
  {"uuid":"ALM-00037","municipality":"Almada","address":"Rua Sergio Malpique 2","localization":"Parque De Estacionamento Do Almada Fórum","postal":"2810-500","latitude":"38.659987","longitude":"-9.175479","socket_number":"2","socket_type":"Normal"},
  {"uuid":"ALM-00027","municipality":"Almada","address":"Avenida Arsenal Do Alfeite","localization":"Parque Da Paz","postal":"2810-025","latitude":"38.66308","longitude":"-9.16541","socket_number":"2","socket_type":"Normal galp"},
  {"uuid":"ALM-00025","municipality":"Almada","address":"Alameda De Guerra Junqueiro","localization":"Complexo De Desportos (Feijó)","postal":"2810-075","latitude":"38.65767","longitude":"-9.16001","socket_number":"2","socket_type":"Normal galp"},
  {"uuid":"ALM-00019","municipality":"Almada","address":"Rua Francisco Costa","localization":"Madan Parque","postal":"2825-182","latitude":"38.66216","longitude":"-9.20152","socket_number":"2","socket_type":"Normal galp"},
  {"uuid":"ALM-00015","municipality":"Almada","address":"Avenida General Humberto Delgado","localization":"Hotel Costa Da Caparica","postal":"2825-278","latitude":"38.64117","longitude":"-9.23653","socket_number":"2","socket_type":"Normal galp"},
  {"uuid":"ALM-00010","municipality":"Almada","address":"Praça João Raimundo","localization":"Museu Da Cidade","postal":"2805-104","latitude":"38.667286","longitude":"-9.160791","socket_number":"2","socket_type":"Normal galp"},
  {"uuid":"ALM-00001","municipality":"Almada","address":"Largo Alfredo Diniz","localization":"Largo De Cacilhas","postal":"2800-252","latitude":"38.68756","longitude":"-9.14772","socket_number":"2","socket_type":"Normal galp"},
  {"uuid":"ALD-00002","municipality":"Almeida","address":"Prio Energy - Av. Da Fronteira - Vilar Formoso","localization":"Prio Energy - Av. Da Fronteira - Vilar Formoso","postal":"6355-270","latitude":"40.608722","longitude":"-6.828335","socket_number":"2","socket_type":"Rápido"},
  {"uuid":"ALR-00001","municipality":"Almeirim","address":"Parque De Estacionamente Da Praça_x000D_ De Touros","localization":"-","postal":"-","latitude":"39.2008333","longitude":"-8.62652778","socket_number":"2","socket_type":"Normal"},
  {"uuid":"ADV-00001","municipality":"Almodôvar","address":"R. Do Mercado","localization":"-","postal":"7700-052","latitude":"37.5121944","longitude":"-8.05961111","socket_number":"2","socket_type":"Normal"},
  {"uuid":"APC-00001","municipality":"Alpiarça","address":"Rua Dr. Queiroz Vaz Guedes","localization":"-","postal":"2090-","latitude":"39.2573056","longitude":"-8.58522222","socket_number":"2","socket_type":"Normal"},
  {"uuid":"ALT-00001","municipality":"Alter Do Chão","address":"R. João Lopes Namorado","localization":"-","postal":"-","latitude":"39.1974444","longitude":"-7.65966667","socket_number":"2","socket_type":"Normal"},
  {"uuid":"AVT-00001","municipality":"Alvito","address":"Jardim Da Praça Da República","localization":"-","postal":"-","latitude":"38.2571944","longitude":"-7.99197222","socket_number":"2","socket_type":"Normal"},
  {"uuid":"AMD-00003","municipality":"Amadora","address":"Zona Industrial De Alfragide En 117","localization":"Parque De Estacionamento - Ikea Alfragide","postal":"2614-520","latitude":"38.728917","longitude":"-9.216006","socket_number":"2","socket_type":"Normal"},
  {"uuid":"AMD-00025","municipality":"Amadora","address":"E.N. 117 Km 1,668","localization":"Galpgeste - A.s. Alfragide (Lisboa/Amadora)","postal":"2700-000","latitude":"38.733021","longitude":"-9.224214","socket_number":"Carrega 1 VE em DC ou AC","socket_type":"Rápido galp"},
  {"uuid":"AMD-00018","municipality":"Amadora","address":"Rua Dos Rucaliptos 5 1ºdir","localization":"Edifício Quatenus","postal":"2610-069","latitude":"38.740236","longitude":"-9.224529","socket_number":"1","socket_type":"Normal"},
  {"uuid":"AMD-00019","municipality":"Amadora","address":"Rua Dos Rucaliptos 5 1ºdir","localization":"Edifício Quatenus","postal":"2610-069","latitude":"38.740237","longitude":"-9.22453","socket_number":"1","socket_type":"Normal"},
  {"uuid":"AMD-00020","municipality":"Amadora","address":"Rua Dos Rucaliptos 5 1ºdir","localization":"Edifício Quatenus","postal":"2610-069","latitude":"38.740238","longitude":"-9.224531","socket_number":"1","socket_type":"Normal"},
  {"uuid":"AMD-00021","municipality":"Amadora","address":"Rua Dos Rucaliptos 5 1ºdir","localization":"Edifício Quatenus","postal":"2610-069","latitude":"38.740239","longitude":"-9.224532","socket_number":"1","socket_type":"Normal"},
  {"uuid":"AMD-00002","municipality":"Amadora","address":"Rua Fontes Pereira De Melo","localization":"Parque De Estacionamento - Estação De Comboios Da Damaia","postal":"2720-233","latitude":"38.748427","longitude":"-9.214207","socket_number":"2","socket_type":"Normal"},
  {"uuid":"AMD-00001","municipality":"Amadora","address":"Avenida Cruzeiro Seixas","localization":"Centro Comercial Dolce Vita Tejo","postal":"2650-504","latitude":"38.779597","longitude":"-9.219635","socket_number":"2","socket_type":"Normal"},
  {"uuid":"AMD-00022","municipality":"Amadora","address":"Posto Prio Alfornelos","localization":"Posto Prio Energy Alfornelos","postal":"2650-192","latitude":"38.763417","longitude":"-9.203639","socket_number":"2","socket_type":"Rápido"},
  {"uuid":"AMD-00017","municipality":"Amadora","address":"R. Henrique Nogueira","localization":"-","postal":"2700-545","latitude":"38.7594722","longitude":"-9.23325","socket_number":"2","socket_type":"Normal galp"},
  {"uuid":"AND-00001","municipality":"Anadia","address":"Avenida Das Laranjeiras","localization":"Avenida Das Laranjeiras","postal":"3780-202","latitude":"40.442825","longitude":"-8.434475","socket_number":"2","socket_type":"Normal"},
  {"uuid":"AND-00002","municipality":"Anadia","address":"Av. Dos Plátanos","localization":"-","postal":"3780-545","latitude":"40.425125","longitude":"-8.45647778","socket_number":"2","socket_type":"Normal galp"},
  {"uuid":"AGH-00001","municipality":"Angra Do Heroísmo","address":"Circular Externa - Silveira - S. Pedro","localization":"Pa Circular Externa - S/N / Quinta Da Maia, Lda.","postal":"9700-193","latitude":"38.660908333333","longitude":"-27.233738888889","socket_number":"Carrega 2 VE's em simultâneo (DC ou AC)","socket_type":"Rápido galp"},
  {"uuid":"ANS-00001","municipality":"Ansião","address":"-","localization":"-","postal":"-","latitude":"39.910612","longitude":"-8.436864","socket_number":"2","socket_type":"Normal"},
  {"uuid":"AGN-00001","municipality":"Arganil","address":"R José Augusto Da Costa Ferreira","localization":"-","postal":"-","latitude":"40.220856","longitude":"-8.053873","socket_number":"2","socket_type":"Normal"},
  {"uuid":"AMM-00001","municipality":"Armamar","address":"Rua São Lazaro","localization":"-","postal":"5110-133","latitude":"41.1087222","longitude":"-7.69363889","socket_number":"2","socket_type":"Normal"},
  {"uuid":"ARC-00001","municipality":"Arouca","address":"R. Alferes Diogo Malafaia","localization":"-","postal":"4540-117","latitude":"40.9298056","longitude":"-8.24816667","socket_number":"2","socket_type":"Normal"},
  {"uuid":"ARL-00001","municipality":"Arraiolos","address":"Av. 1º De Maio","localization":"-","postal":"-","latitude":"38.7208611","longitude":"-7.98658333","socket_number":"2","socket_type":"Normal"},
  {"uuid":"ARR-00001","municipality":"Arronches","address":"R. B","localization":"-","postal":"-","latitude":"39.1229444","longitude":"-7.28136111","socket_number":"2","socket_type":"Normal"},
  {"uuid":"ARV-00002","municipality":"Arruda Dos Vinhos","address":"Largo Miguel Bombarda","localization":"Junto Câmara Municipal","postal":"2630-112","latitude":"38.983252","longitude":"-9.077359","socket_number":"2","socket_type":"Normal"},
  {"uuid":"ARV-00001","municipality":"Arruda Dos Vinhos","address":"Rua João De Deus","localization":"-","postal":"2630-247","latitude":"38.9808583","longitude":"-9.07691944","socket_number":"2","socket_type":"Normal"},
  {"uuid":"AVR-00001","municipality":"Aveiro","address":"Avenida Da Universidade","localization":"Hospital Infante Dom Pedro/Universidade","postal":"3810-489","latitude":"40.633755","longitude":"-8.656367","socket_number":"4","socket_type":"Normal"},
  {"uuid":"AVR-00006","municipality":"Aveiro","address":"Rua Doutor Orlando Oliveira","localization":"Forca Vouga/Loja Cidadão","postal":"3800-004","latitude":"40.63903","longitude":"-8.640332","socket_number":"4","socket_type":"Normal"},
  {"uuid":"AVR-00003","municipality":"Aveiro","address":"Rua Do Príncipe Perfeito","localization":"Jardim Do Museu Santa Joana","postal":"3810-164","latitude":"40.6393237","longitude":"-8.6516805","socket_number":"2","socket_type":"Normal"},
  {"uuid":"AVR-00015","municipality":"Aveiro","address":"Rua Batalhão Caçadores Dez","localization":"Forum Aveiro","postal":"3810-064","latitude":"40.64133","longitude":"-8.65262","socket_number":"2","socket_type":"Normal"},
  {"uuid":"AVR-00002","municipality":"Aveiro","address":"Rua Do Clube Dos Galitos","localization":"Praça Do Rossio","postal":"3810-043","latitude":"40.641453","longitude":"-8.657778","socket_number":"2","socket_type":"Normal"},
  {"uuid":"AVR-00007","municipality":"Aveiro","address":"Rua João Afonso","localization":"-","postal":"3810-273","latitude":"40.642483","longitude":"-8.656861","socket_number":"3","socket_type":"Rápido"},
  {"uuid":"AVR-00005","municipality":"Aveiro","address":"Avenida Doutor Lourenço Peixinho","localization":"Estação Cp Aveiro","postal":"3800-168","latitude":"40.64416","longitude":"-8.641327","socket_number":"4","socket_type":"Normal"},
  {"uuid":"AVR-00018","municipality":"Aveiro","address":"Avenida Europoa - N109 Km 57,8","localization":"Posto Bp Aveiro, N109","postal":"-","latitude":"40.631675","longitude":"-8.641026","socket_number":"3","socket_type":"Rápido"},
{"uuid":"AVR-00019","municipality":"Aveiro","address":"Rua Noa De Vilar","localization":"Elefante Azul","postal":"3810-196","latitude":"40.631822","longitude":"-8.638563","socket_number":"3","socket_type":"Rápido"},
{"uuid":"AVR-00004","municipality":"Aveiro","address":"Rua Doutor Alberto Soares Machado","localization":"Centro Regional De Segurança Social De Aveiro","postal":"3800-148","latitude":"40.643745","longitude":"-8.648611","socket_number":"2","socket_type":"Normal galp"},
{"uuid":"AVS-00001","municipality":"Avis","address":"Rua 1º De Maio","localization":"-","postal":"-","latitude":"39.0544583","longitude":"-7.89046944","socket_number":"2","socket_type":"Normal galp"},
{"uuid":"AZB-00001","municipality":"Azambuja","address":"A1 Km 44 (Sentido Sul/Norte)","localization":"A.s. Aveiras (S/N)","postal":"2050-000","latitude":"39.122353","longitude":"-8.907745","socket_number":"Carrega 1 VE em DC ou AC","socket_type":"Rápido galp"},
{"uuid":"AZB-00002","municipality":"Azambuja","address":"A1 Km 44 (Sentido Norte/Sul)","localization":"A.s. Aveiras (N/S)","postal":"2050-000","latitude":"39.1239868","longitude":"-8.9070956","socket_number":"Carrega 1 VE em DC ou AC","socket_type":"Rápido galp"},
{"uuid":"AZB-00003","municipality":"Azambuja","address":"Rua Alberto Da Silva Neno","localization":"-","postal":"2050-395","latitude":"39.0677222","longitude":"-8.87480556","socket_number":"2","socket_type":"Normal galp"},
{"uuid":"BCL-00003","municipality":"Barcelos","address":"Rua Irmão Martinho Corral Alcalde 175","localization":"Hipermercado E.lEclerc","postal":"4755-054","latitude":"41.522407","longitude":"-8.610039","socket_number":"2","socket_type":"Normal"},
{"uuid":"BRC-00001","municipality":"Barrancos","address":"Rua De Angola","localization":"-","postal":"7230-003","latitude":"38.1341944","longitude":"-6.98008333","socket_number":"2","socket_type":"Normal"},
{"uuid":"BRR-00003","municipality":"Barreiro","address":"Prio Energy - Quinta Das Rebelas - Palhais","localization":"Prio Energy - Quinta Das Rebelas - Palhais","postal":"2830-222","latitude":"38.633808","longitude":"-9.051865","socket_number":"2","socket_type":"Rápido"},
{"uuid":"BRR-00001","municipality":"Barreiro","address":"Av. Santa Maria","localization":"-","postal":"2830-007","latitude":"38.657","longitude":"-9.0675","socket_number":"2","socket_type":"Normal"},
{"uuid":"BTL-00001","municipality":"Batalha","address":"Rua Moinho Da Vila","localization":"-","postal":"2440-120","latitude":"39.6577972","longitude":"-8.82180556","socket_number":"2","socket_type":"Normal galp"},
{"uuid":"BJA-00004","municipality":"Beja","address":"Rua 1º De Maio","localization":"Bejaparque Hotel","postal":"7800-510","latitude":"38.0108611","longitude":"-7.8745333","socket_number":"2","socket_type":"Normal"},
{"uuid":"BJA-00003","municipality":"Beja","address":"Rua Pedro Soares","localization":"Parque Estacionamento Ipb","postal":"7800-295","latitude":"38.0132861","longitude":"-7.8725638","socket_number":"2","socket_type":"Normal"},
{"uuid":"BJA-00007","municipality":"Beja","address":"Herdade Da Figueirinha - Santa Vitória","localization":"Vila Galé Beja - Herdade Da Figueirinha - Santa Vitória","postal":"7800-730","latitude":"37.889122","longitude":"-8.020398","socket_number":"1","socket_type":"Normal"},
{"uuid":"BJA-00008","municipality":"Beja","address":"Herdade Da Figueirinha - Santa Vitória","localization":"Vila Galé Beja - Herdade Da Figueirinha - Santa Vitória","postal":"7800-730","latitude":"37.889123","longitude":"-8.020399","socket_number":"1","socket_type":"Normal"},
{"uuid":"BJA-00005","municipality":"Beja","address":"Variante De Beja Ip8-En260","localization":"Parque De Materiais Do Município","postal":"7800-000","latitude":"38.0265639","longitude":"-7.8674361","socket_number":"2","socket_type":"Normal galp"},
{"uuid":"BJA-00002","municipality":"Beja","address":"Avenida Miguel Fernandes","localization":"Parque Estacionamento Miguel Fernandes","postal":"7800-396","latitude":"38.0150111","longitude":"-7.86685","socket_number":"2","socket_type":"Normal galp"},
{"uuid":"BJA-00001","municipality":"Beja","address":"Praça Da República","localization":"Praça Da República","postal":"7800-427","latitude":"38.015648","longitude":"-7.865225","socket_number":"2","socket_type":"Normal galp"},
{"uuid":"BJA-00006","municipality":"Beja","address":"Avenida Fialho De Almeida Nº78","localization":"Intermarché De Beja","postal":"7800-395","latitude":"38.004844","longitude":"-7.866696","socket_number":"2","socket_type":"Normal galp"},
{"uuid":"BNV-00002","municipality":"Benavente","address":"Rua Da Esteveira - N118","localization":"Intermarché De Samora Correia","postal":"2135-339","latitude":"38.937662","longitude":"-8.864353","socket_number":"2","socket_type":"Normal"},
{"uuid":"BNV-00003","municipality":"Benavente","address":"Rua Da Esteveira - N118","localization":"Intermarché De Samora Correia","postal":"2135-339","latitude":"38.937663","longitude":"-8.864354","socket_number":"2","socket_type":"Normal"},
{"uuid":"BNV-00001","municipality":"Benavente","address":"Largo Dom Sancho I","localization":"-","postal":"-","latitude":"38.9782222","longitude":"-8.81022222","socket_number":"2","socket_type":"Normal"},
{"uuid":"BBR-00001","municipality":"Bombarral","address":"Rua D. Afonso Henriques","localization":"-","postal":"2540-081","latitude":"39.267975","longitude":"-9.15455556","socket_number":"2","socket_type":"Normal"},
{"uuid":"BRB-00001","municipality":"Borba","address":"Avenida D. Dinis De Melo E Castro","localization":"-","postal":"-","latitude":"38.8070556","longitude":"-7.45352778","socket_number":"2","socket_type":"Normal galp"},
{"uuid":"BTC-00001","municipality":"Boticas","address":"Travessa Do Município","localization":"-","postal":"5460-304","latitude":"41.6870556","longitude":"-7.66725","socket_number":"2","socket_type":"Normal"},
{"uuid":"BRG-00013","municipality":"Braga","address":"Parque Industrial Dos Celeirós","localization":"Parque Industrial De Celeirós","postal":"4705-732","latitude":"41.509882","longitude":"-8.4534163","socket_number":"2","socket_type":"Normal"},
{"uuid":"BRG-00002","municipality":"Braga","address":"Rua Dos Bombeiros Voluntários","localization":"Museu D. Diogo De Sousa","postal":"4700-025","latitude":"41.5450923","longitude":"-8.428481","socket_number":"4","socket_type":"Normal"},
{"uuid":"BRG-00005","municipality":"Braga","address":"Praceta João Xxi","localization":"Hotel Turismo","postal":"4715-036","latitude":"41.5464","longitude":"-8.41955","socket_number":"2","socket_type":"Normal"},
{"uuid":"BRG-00007","municipality":"Braga","address":"Rua Marcelino Sá Pires","localization":"Edifício Muralha","postal":"4700-924","latitude":"41.5466827","longitude":"-8.4229156","socket_number":"2","socket_type":"Normal"},
{"uuid":"BRG-00006","municipality":"Braga","address":"Rua Doutor Francisco Duarte","localization":"Tribunal Judicial De Braga","postal":"4715-126","latitude":"41.548689","longitude":"-8.4135512","socket_number":"2","socket_type":"Normal"},
{"uuid":"BRG-00001","municipality":"Braga","address":"Praça Do Município","localization":"Jardim Da Praça Do Município","postal":"4700-435","latitude":"41.5512389","longitude":"-8.4281364","socket_number":"2","socket_type":"Normal"},
{"uuid":"BRG-00015","municipality":"Braga","address":"Rua De São Martinho","localization":"Rua De São Martinho","postal":"4700-380","latitude":"41.553195","longitude":"-8.430342","socket_number":"3","socket_type":"Rápido"},
{"uuid":"BRG-00008","municipality":"Braga","address":"Avenida João Paulo Ii","localization":"Instituto De Nanotecnologia","postal":"4715-330","latitude":"41.55495","longitude":"-8.40077","socket_number":"4","socket_type":"Normal"},
{"uuid":"BRG-00009","municipality":"Braga","address":"Rua Nova De Santa Cruz","localization":"Universidade Do Minho (Campus De Gualtar)","postal":"4710-409","latitude":"41.558116","longitude":"-8.3982973","socket_number":"2","socket_type":"Normal"},
{"uuid":"BRG-00012","municipality":"Braga","address":"Rua Da Quintã","localization":"Frossos-Parque Industrial Do Feital","postal":"4700-152","latitude":"41.561766","longitude":"-8.444903","socket_number":"2","socket_type":"Normal"},
{"uuid":"BRG-00010","municipality":"Braga","address":"Rua De Santo André","localization":"Parque Industrial De Adaufe","postal":"4710-570","latitude":"41.5965167","longitude":"-8.4119333","socket_number":"2","socket_type":"Normal"},
{"uuid":"BRG-00032","municipality":"Braga","address":"Quinta Dos Congregados","localization":"Cc Braga Parque (1)","postal":"4710-427","latitude":"41.556777","longitude":"-8.406444","socket_number":"2","socket_type":"Normal"},
{"uuid":"BRG-00033","municipality":"Braga","address":"R. Dos Congregados 154","localization":"Cc Braga Parque (2)","postal":"4710-429","latitude":"41.556986","longitude":"-8.406372","socket_number":"2","socket_type":"Normal"},
{"uuid":"BRG-00030","municipality":"Braga","address":"Quinta De Passos São Victor","localization":"Braga Retail Center","postal":"4710-426","latitude":"41.56516","longitude":"-8.4063","socket_number":"2","socket_type":"Normal"},
{"uuid":"BRG-00031","municipality":"Braga","address":"Quinta De Passos São Victor","localization":"Braga Retail Center","postal":"4710-426","latitude":"41.56516","longitude":"-8.4063","socket_number":"2","socket_type":"Normal"},
{"uuid":"BRG-00014","municipality":"Braga","address":"Rua Quinta Da Armada","localization":"Hospital De Braga (Gualtar)","postal":"4710-340","latitude":"41.5650167","longitude":"-8.4022166","socket_number":"2","socket_type":"Normal galp"},
{"uuid":"BRG-00011","municipality":"Braga","address":"Rua Do Penedo","localization":"Palmeira-Parque Industrial De Pitancinhos","postal":"4700-720","latitude":"41.5680555","longitude":"-8.4191666","socket_number":"2","socket_type":"Normal galp"},
{"uuid":"BRG-00003","municipality":"Braga","address":"Rua Nova Da Estação","localization":"Estação De Caminhos De Ferro","postal":"4700-234","latitude":"41.5494113","longitude":"-8.4344835","socket_number":"2","socket_type":"Normal galp"},
{"uuid":"BRG-00042","municipality":"Braga","address":"Lugar Da Arcela, Lamacães","localization":"Makro Braga","postal":"4710-104","latitude":"41.549666","longitude":"-8.401489","socket_number":"2","socket_type":"Normal galp"},
{"uuid":"BRG-00041","municipality":"Braga","address":"Lugar Da Arcela, Lamacães","localization":"Makro Braga","postal":"4710-104","latitude":"41.549665","longitude":"-8.401488","socket_number":"2","socket_type":"Normal galp"},
{"uuid":"BRG-00040","municipality":"Braga","address":"Lugar Da Arcela, Lamacães","localization":"Makro Braga","postal":"4710-104","latitude":"41.549664","longitude":"-8.401487","socket_number":"2","socket_type":"Normal galp"},
{"uuid":"BRG-00017","municipality":"Braga","address":"Avenida De Lamas, Nº 100","localization":"Cc Nova Arcada (2)","postal":"4700-068","latitude":"41.578948","longitude":"-8.430332","socket_number":"2","socket_type":"Normal galp"},
{"uuid":"BRG-00016","municipality":"Braga","address":"Avenida De Lamas, Nº 100","localization":"Cc Nova Arcada (1)","postal":"4700-068","latitude":"41.578947","longitude":"-8.430331","socket_number":"2","socket_type":"Normal galp"},
{"uuid":"BGC-00002","municipality":"Bragança","address":"Jardim António José De Almeida","localization":"Jardim António José De Almeida","postal":"5300-130","latitude":"41.80488","longitude":"-6.757647","socket_number":"2","socket_type":"Normal"},
{"uuid":"BGC-00001","municipality":"Bragança","address":"Avenida João Da Cruz","localization":"Estação Rodoviária De Bragança","postal":"5300-178","latitude":"41.80888","longitude":"-6.76028","socket_number":"4","socket_type":"Normal"},
{"uuid":"BGC-00003","municipality":"Bragança","address":"Avenida Sá Carneiro","localization":"Avenida Sá Carneiro","postal":"5300-252","latitude":"41.805","longitude":"-6.76","socket_number":"2","socket_type":"Normal"},
{"uuid":"CBC-00010","municipality":"Cabeceiras De_X000D_ Basto","address":"Largo Barjona De Freitas","localization":"-","postal":"-","latitude":"41.5148333","longitude":"-7.99052778","socket_number":"2","socket_type":"Normal"},
{"uuid":"CDV-00001","municipality":"Cadaval","address":"Largo Da Misericórdia","localization":"-","postal":"-","latitude":"39.2431667","longitude":"-9.10102778","socket_number":"2","socket_type":"Normal galp"},
{"uuid":"CLD-00006","municipality":"Caldas Da Rainha","address":"Praça 5 De Outubro","localization":"Parque De Estacionamento Subterrâneo - Praça 5 De Outubro","postal":"2500-111","latitude":"39.4034","longitude":"-9.136704","socket_number":"2","socket_type":"Normal"},
{"uuid":"CLD-00003","municipality":"Caldas Da Rainha","address":"Avenida Da Independência Nacional","localization":"Em Frente Ao Millennium Bcp","postal":"2500-082","latitude":"39.406311","longitude":"-9.13764","socket_number":"2","socket_type":"Normal"},
{"uuid":"CLD-00002","municipality":"Caldas Da Rainha","address":"Avenida 1º De Maio","localization":"Avenida 1º De Maio","postal":"2500-081","latitude":"39.40677","longitude":"-9.138918","socket_number":"2","socket_type":"Normal"},
{"uuid":"CLD-00004","municipality":"Caldas Da Rainha","address":"Praça 25 De Abril","localization":"Tribunal De Comarca - Caldas Da Rainha","postal":"2500-110","latitude":"39.407228","longitude":"-9.136138","socket_number":"2","socket_type":"Normal"},
{"uuid":"CLD-00005","municipality":"Caldas Da Rainha","address":"Praça 5 De Outubro","localization":"Parque De Estacionamento Subterrâneo - Praça 5 De Outubro","postal":"2500-111","latitude":"39.40339","longitude":"-9.136703","socket_number":"2","socket_type":"Normal"},
{"uuid":"CLD-00001","municipality":"Caldas Da Rainha","address":"Rua Francisco Almeida Caiado","localization":"Rua Francisco Almeida Caiado","postal":"2500-204","latitude":"39.406178","longitude":"-9.132744","socket_number":"2","socket_type":"Normal"},
{"uuid":"CLD-00008","municipality":"Caldas Da Rainha","address":"R. De Vitorino Frois","localization":"-","postal":"-","latitude":"39.4025278","longitude":"-9.14102778","socket_number":"2","socket_type":"Normal"},
{"uuid":"CLT-00002","municipality":"Calheta","address":"Avenida Dom Manuel I","localization":"Esquadra Psp Da Calheta","postal":"9370-135","latitude":"32.721389","longitude":"-17.178611","socket_number":"2","socket_type":"Normal"},
{"uuid":"CLT-00001","municipality":"Calheta","address":"Avenida Dom Manuel I","localization":"Esquadra Psp Da Calheta","postal":"9370-135","latitude":"32.721388","longitude":"-17.178612","socket_number":"1","socket_type":"Rápido"},
{"uuid":"CLT-00003","municipality":"Calheta","address":"Caminho Do Jardim Pelado 103","localization":"Parque De Estacionamento Da Empresa Prazeres De Inverno, Lda","postal":"9370-630","latitude":"32.75309","longitude":"-17.210175","socket_number":"1","socket_type":"Normal"},
{"uuid":"CHT-00001","municipality":"Calheta (R.a.a.)","address":"Travessas - Ribeira Seca","localization":"Pa Ribeira Seca / Lubriseca, Lda.","postal":"9850-000","latitude":"38.637525","longitude":"-28.014308333333","socket_number":"Carrega 2 VE's em simultâneo (DC ou AC)","socket_type":"Rápido galp"},
{"uuid":"RAM-CML-00001","municipality":"Câmara De Lobos","address":"Avenida Nova Cidade","localization":"Avenida Nova Cidade","postal":"9300-061","latitude":"32.649926","longitude":"-16.978769","socket_number":"3","socket_type":"Rápido"},
{"uuid":"CMN-00001","municipality":"Caminha","address":"-","localization":"-","postal":"-","latitude":"41.8789722","longitude":"-8.83816667","socket_number":"2","socket_type":"Normal"},
{"uuid":"CMR-00001","municipality":"Campo Maior","address":"Avenida Da Liberdade","localization":"-","postal":"-","latitude":"39.0150333","longitude":"-7.06846944","socket_number":"2","socket_type":"Normal"},
{"uuid":"CNT-00002","municipality":"Cantanhede","address":"A1 Km 223 (Sentido Sul/Norte)","localization":"Área De Serviço Mealhada (Sentido Sul/Norte)","postal":"3060-000","latitude":"40.333574","longitude":"-8.492737","socket_number":"3","socket_type":"Rápido"},
{"uuid":"CNT-00001","municipality":"Cantanhede","address":"Largo Cândido Reis","localization":"-","postal":"3060-202","latitude":"40.34625","longitude":"-8.59247222","socket_number":"2","socket_type":"Normal"},
{"uuid":"FCT-00003","municipality":"Caparica","address":"Largo Da Torre","localization":"Fct Nova (1)","postal":"2829-516 ","latitude":"38.663591","longitude":"-9.203341","socket_number":"2","socket_type":"Normal"},
{"uuid":"FCT-00004","municipality":"Caparica","address":"Largo Da Torre","localization":"Fct Nova (2)","postal":"2829-516 ","latitude":"38.663591","longitude":"-9.203341","socket_number":"2","socket_type":"Normal"},
{"uuid":"CRZ-00001","municipality":"Carrazeda De_X000D_ Ansiães","address":"Rua Jerónimo Barbosa","localization":"-","postal":null,"latitude":"41.2424056","longitude":"-7.30630278","socket_number":"2","socket_type":"Normal"},
{"uuid":"CRS-00001","municipality":"Carregal Do Sal","address":"R. António Victor Júnior","localization":"-","postal":"-","latitude":"40.4330583","longitude":"-8.00186944","socket_number":"2","socket_type":"Normal"},
{"uuid":"CSC-00008","municipality":"Cascais","address":"Avenida Da República","localization":"Avenida Da República","postal":"2775-275","latitude":"38.6907111","longitude":"-9.357","socket_number":"2","socket_type":"Normal"},
{"uuid":"CSC-00013","municipality":"Cascais","address":"Praça Mário Azevedo Gomes","localization":"Praça Mário Azevedo Gomes","postal":"2775-240","latitude":"38.6915055","longitude":"-9.3588194","socket_number":"2","socket_type":"Normal"},
{"uuid":"CSC-00007","municipality":"Cascais","address":"Avenida Marginal","localization":"Centro De Interpretação Ambiental Da Pedra Do Sal","postal":"2765-603","latitude":"38.6939","longitude":"-9.3722583","socket_number":"2","socket_type":"Normal"},
{"uuid":"CSC-00002","municipality":"Cascais","address":"Avenida Da República","localization":"Parque Marechal Carmona","postal":"2750-475","latitude":"38.6944694","longitude":"-9.4229083","socket_number":"2","socket_type":"Normal"},
{"uuid":"CSC-00006","municipality":"Cascais","address":"Rua Da República","localization":"Estação De São Pedro Do Estoril - Norte","postal":"2765-518","latitude":"38.6961111","longitude":"-9.3740194","socket_number":"2","socket_type":"Normal"},
{"uuid":"CSC-00001","municipality":"Cascais","address":"Avenida Dom Carlos I","localization":"Cm Cascais","postal":"3000-550","latitude":"38.696115","longitude":"-9.420148","socket_number":"2","socket_type":"Normal"},
{"uuid":"CSC-00015","municipality":"Cascais","address":"Rua Dom Francisco De Avilez 6","localization":"Loja Do Cidadão Cascais","postal":"2750-642","latitude":"38.699525","longitude":"-9.422944","socket_number":"3","socket_type":"Rápido"},
{"uuid":"CSC-00003","municipality":"Cascais","address":"Alameda Duquesa De Palmela","localization":"Largo Da Estação","postal":"2750-335","latitude":"38.7004388","longitude":"-9.4179527","socket_number":"6","socket_type":"Normal"},
{"uuid":"CSC-00005","municipality":"Cascais","address":"Avenida Florinda Leal","localization":"Estação De São João Do Estoril","postal":"2765-224","latitude":"38.7011","longitude":"-9.3865722","socket_number":"2","socket_type":"Normal"},
{"uuid":"CSC-00004","municipality":"Cascais","address":"Avenida Marginal","localization":"Jardim Do Casino Do Estoril","postal":"2765-247","latitude":"38.7036666","longitude":"-9.3982138","socket_number":"4","socket_type":"Normal"},
{"uuid":"CSC-00012","municipality":"Cascais","address":"Rua Dos Caçadores","localization":"Centro Da Abóboda","postal":"2785-015","latitude":"38.7246583","longitude":"-9.3339694","socket_number":"4","socket_type":"Normal"},
{"uuid":"CSC-00018","municipality":"Cascais","address":"Estrada Nacional 249-4","localization":"Lidl Da Abóboda","postal":"2785-668","latitude":"38.727678","longitude":"-9.336544","socket_number":"3","socket_type":"Rápido"},
{"uuid":"CSC-00010","municipality":"Cascais","address":"Largo 5 De Outubro","localization":"Largo 5 De Outubro","postal":"2645-040","latitude":"38.7325777","longitude":"-9.4105194","socket_number":"2","socket_type":"Normal"},
{"uuid":"CSC-00016","municipality":"Cascais","address":"Avenida Rei Humberto Ii De Itália","localization":"Boca Do Inferno","postal":"2750-800","latitude":"38.69141","longitude":"-9.42985","socket_number":"2","socket_type":"Normal"},
{"uuid":"CSC-00027","municipality":"Cascais","address":"Avenida Da República 300","localization":"Parque Marechal Carmona","postal":"2750-475","latitude":"38.694555","longitude":"-9.423191","socket_number":"3","socket_type":"Rápido"},
{"uuid":"CSC-00042","municipality":"Cascais","address":"-","localization":"Hotel Mirage","postal":"2754-536 ","latitude":"38.702211","longitude":"-9.410889","socket_number":"2","socket_type":"Normal"},
{"uuid":"CSC-00040","municipality":"Cascais","address":"Avenida Marginal 49, Estoril","localization":"Vila Galé, Av. Marginal 49, Estoril","postal":"2766-901","latitude":"38.704021","longitude":"-9.396522","socket_number":"1","socket_type":"Normal"},
{"uuid":"CSC-00041","municipality":"Cascais","address":"Avenida Marginal 49, Estoril","localization":"Vila Galé, Av. Marginal 49, Estoril","postal":"2766-901","latitude":"38.704022","longitude":"-9.396523","socket_number":"1","socket_type":"Normal"},
{"uuid":"CSC-00046","municipality":"Cascais","address":"Estrada Da Torre","localization":"Área De Serviço Birre","postal":"2750-269","latitude":"38.710968","longitude":"-9.446366","socket_number":"Carrega 2 VE's em simultâneo (DC ou AC)","socket_type":"Rápido galp"},
{"uuid":"CSC-00047","municipality":"Cascais","address":"Estrada Da Torre","localization":"Galpgeste - A.s. Estoril","postal":"2765-000","latitude":"38.710968","longitude":"-9.446366","socket_number":"Carrega 2 VE's em simultâneo (DC ou AC)","socket_type":"Rápido galp"},
{"uuid":"CSC-00011","municipality":"Cascais","address":"Estrada De Manique","localization":"Complexo Multiserviços (Alcabideche)","postal":"2755-182","latitude":"38.736197","longitude":"-9.386233","socket_number":"4","socket_type":"Normal"},
{"uuid":"CSC-00020","municipality":"Cascais","address":"Rua Florêncio Freire","localization":"Posto De Combustivel Prio Energy (Trajouce)","postal":"2785-663","latitude":"38.74063","longitude":"-9.3413","socket_number":"2","socket_type":"Normal"},
{"uuid":"CSC-00021","municipality":"Cascais","address":"Rua Florêncio Freire 44","localization":"Posto Prio Trajouce","postal":"2785-663","latitude":"38.74064","longitude":"-9.3414","socket_number":"2","socket_type":"Normal"},
{"uuid":"CSC-00014","municipality":"Cascais","address":"Largo São Domingos","localization":"Igreja Paroquial De São Domingos De Rana","postal":"2785-586","latitude":"38.7029361","longitude":"-9.3405055","socket_number":"2","socket_type":"Normal galp"},
{"uuid":"CSC-00009","municipality":"Cascais","address":"Rua Doutor Manuel De Arriaga","localization":"Estação De Carcavelos","postal":"2775-602","latitude":"38.6880166","longitude":"-9.3370222","socket_number":"4","socket_type":"Normal galp"},
{"uuid":"CSC-00023","municipality":"Cascais","address":"Estrada Nacional 9","localization":"Cc Cascaishopping (2)","postal":"2645-543","latitude":"38.7391668","longitude":"-9.3972223","socket_number":"2","socket_type":"Normal galp"},
{"uuid":"CSC-00022","municipality":"Cascais","address":"Estrada Nacional 9","localization":"Cc Cascaishopping (1)","postal":"2645-543","latitude":"38.7391667","longitude":"-9.3972222","socket_number":"2","socket_type":"Normal galp"},
{"uuid":"CPR-00001","municipality":"Castanheira De Pêra","address":"Av. Adrião Reis","localization":"-","postal":"3280-012","latitude":"40.0059722","longitude":"-8.20972222","socket_number":"2","socket_type":"Normal"},
{"uuid":"CBC-00002","municipality":"Castelo Branco","address":"Rua Prof. Dr. Faria De Vasconcelos","localization":"Escola Superior De Educação","postal":"6000-266","latitude":"39.81916","longitude":"-7.49583","socket_number":"2","socket_type":"Normal"},
{"uuid":"CBC-00006","municipality":"Castelo Branco","address":"Avenida Do Empresário","localization":"Instituto Politécnico De Castelo Branco","postal":"6005-015","latitude":"39.81972","longitude":"-7.51194","socket_number":"2","socket_type":"Normal"},
{"uuid":"CBC-00003","municipality":"Castelo Branco","address":"Rua Da Carapalha","localization":"Instituto Da Segurança Social","postal":"6000-320","latitude":"39.8198775","longitude":"-7.487625","socket_number":"2","socket_type":"Normal"},
{"uuid":"CBC-00005","municipality":"Castelo Branco","address":"Avenida Pedro Álvares Cabral","localization":"Hospital Amato Lusitano (Castelo Branco)","postal":"6000-084","latitude":"39.8221501","longitude":"-7.5008866","socket_number":"2","socket_type":"Normal"},
{"uuid":"CBC-00001","municipality":"Castelo Branco","address":"Praça Do Município","localization":"Praça Do Município","postal":"6000-458","latitude":"39.8231073","longitude":"-7.4921474","socket_number":"2","socket_type":"Normal"},
{"uuid":"CBC-00004","municipality":"Castelo Branco","address":"Avenida General Humberto Delgado","localization":"Av. General Humberto Delgado","postal":"6000-081","latitude":"39.8244845","longitude":"-7.4884408","socket_number":"2","socket_type":"Normal"},
{"uuid":"CBC-00007","municipality":"Castelo Branco","address":"Largo De Santo António","localization":"Largo De Santo António","postal":"6005-015","latitude":"39.9151519","longitude":"-7.4587794","socket_number":"2","socket_type":"Normal"},
{"uuid":"CTB-00007","municipality":"Castelo Branco","address":"Largo De Santo António","localization":"-","postal":"6005-015","latitude":"39.91515","longitude":"-7.45878","socket_number":"2","socket_type":"Normal galp"},
{"uuid":"CTB-00005","municipality":"Castelo Branco","address":"Avenida Pedro Álvares Cabral","localization":"-","postal":"6000-084","latitude":"39.82215","longitude":"-7.50089","socket_number":"2","socket_type":"Normal galp"},
{"uuid":"CTB-00002","municipality":"Castelo Branco","address":"Rua Prof. Dr. Faria De Vasconcelos","localization":"-","postal":"6000-266","latitude":"39.81916","longitude":"-7.49583","socket_number":"2","socket_type":"Normal galp"},
{"uuid":"CTB-00001","municipality":"Castelo Branco","address":"Praça Do Município","localization":"-","postal":"6000-458","latitude":"39.82311","longitude":"-7.49215","socket_number":"2","socket_type":"Normal galp"},
{"uuid":"CTB-00003","municipality":"Castelo Branco","address":"Rua Da Carapalha","localization":"-","postal":"6000-320","latitude":"39.81988","longitude":"-7.48763","socket_number":"2","socket_type":"Normal"},
{"uuid":"CTB-00004","municipality":"Castelo Branco","address":"Avenida General Humberto Delgado","localization":"-","postal":"6000-081","latitude":"39.82448","longitude":"-7.48844","socket_number":"2","socket_type":"Normal"},
{"uuid":"CTB-00006","municipality":"Castelo Branco","address":"Avenida Do Empresário","localization":"-","postal":"6005-015","latitude":"39.81972","longitude":"-7.51194","socket_number":"2","socket_type":"Normal"},
{"uuid":"CPV-00001","municipality":"Castelo De Paiva","address":"Rua Palacio Da Justiça","localization":"-","postal":"-","latitude":"41.0409444","longitude":"-8.27013889","socket_number":"2","socket_type":"Normal"},
{"uuid":"CVD-00001","municipality":"Castelo De Vide","address":"Av. Da Europa","localization":"-","postal":"7320-202","latitude":"39.4108056","longitude":"-7.44891667","socket_number":"2","socket_type":"Normal"},
{"uuid":"CDR-00001","municipality":"Castro Daire","address":"Rua Inocêncio Santos Cruz","localization":"-","postal":"3600-189","latitude":"40.9009444","longitude":"-7.93133333","socket_number":"2","socket_type":"Normal galp"},
{"uuid":"CTM-00001","municipality":"Castro Marim","address":"Rua S. Gonçalo De Lagos","localization":"-","postal":"-","latitude":"37.217942","longitude":"-7.444828","socket_number":"2","socket_type":"Normal"},
{"uuid":"CTM-00002","municipality":"Castro Marim","address":"Rua Dos Descobrimentos, Altura","localization":"-","postal":"-","latitude":"37.180633","longitude":"-7.501914","socket_number":"2","socket_type":"Normal"},
{"uuid":"CVR-00002","municipality":"Castro Verde","address":"Parque Do Intermarché Castro Verde - Farjais De Castro, R. Nova Da Feira","localization":"Intermarché De Castro Verde","postal":"7780-201","latitude":"37.694377","longitude":"-8.090075","socket_number":"Carrega 2 VE's em simultâneo (DC ou AC)","socket_type":"Rápido galp"},
{"uuid":"CVR-00001","municipality":"Castro Verde","address":"R. Da Seara Nova","localization":"-","postal":"7780-124","latitude":"37.7020056","longitude":"-8.08490833","socket_number":"2","socket_type":"Normal"},
{"uuid":"CLB-00004","municipality":"Celorico Da Beira","address":"Quinta Dos Cedros Nº2","localization":"Supermercado Muito Menos, Quinta Dos Cedros","postal":"6360-352","latitude":"40.626058","longitude":"-7.402405","socket_number":"1","socket_type":"Normal"},
{"uuid":"CLB-00005","municipality":"Celorico Da Beira","address":"Quinta Dos Cedros Nº2","localization":"Supermercado Muito Menos, Quinta Dos Cedros","postal":"6360-352","latitude":"40.626059","longitude":"-7.402406","socket_number":"1","socket_type":"Normal"},
{"uuid":"CLB-00006","municipality":"Celorico Da Beira","address":"Quinta Dos Cedros Nº2","localization":"Supermercado Muito Menos, Quinta Dos Cedros","postal":"6360-352","latitude":"40.62606","longitude":"-7.402407","socket_number":"1","socket_type":"Normal"},
{"uuid":"CLB-00007","municipality":"Celorico Da Beira","address":"Quinta Dos Cedros Nº2","localization":"Supermercado Muito Menos, Quinta Dos Cedros","postal":"6360-352","latitude":"40.626061","longitude":"-7.402408","socket_number":"2","socket_type":"Rápido"},
{"uuid":"CLB-00003","municipality":"Celorico Da Beira","address":"Avenida Da Corredoura","localization":"-","postal":"-","latitude":"40.6286944","longitude":"-7.39852778","socket_number":"2","socket_type":"Normal"},
{"uuid":"CBT-00001","municipality":"Celorico De Basto","address":"Praça Cardeal Dom António Ribeiro","localization":"-","postal":"4890-377","latitude":"41.3920278","longitude":"-7.9995","socket_number":"2","socket_type":"Normal"},
{"uuid":"CHM-00001","municipality":"Chamusca","address":"Largo 25 De Abril","localization":"-","postal":"-","latitude":"39.3586472","longitude":"-8.48074444","socket_number":"2","socket_type":"Normal galp"},
{"uuid":"CNF-00001","municipality":"Cinfães","address":"R. Cap. Salgueiro Maia,","localization":"-","postal":"-","latitude":"41.0729722","longitude":"-8.08916667","socket_number":"2","socket_type":"Normal"},
{"uuid":"CBR-00008","municipality":"Coimbra","address":"Rua 5 De Outubro","localization":"Escola Superior De Engenharia De Coimbra (Esec) - Pólo B","postal":"3045-208","latitude":"40.197425","longitude":"-8.462","socket_number":"2","socket_type":"Normal"},
{"uuid":"CBR-00010","municipality":"Coimbra","address":"Avenida Lousã","localization":"Parque De Estacionamento Do Posto Da Prio","postal":"3000-214","latitude":"40.203425","longitude":"-8.425377","socket_number":"3","socket_type":"Rápido"},
{"uuid":"CBR-00003","municipality":"Coimbra","address":"Praça Dom Dinis","localization":"Universidade De Coimbra - Pólo I D. Dinis","postal":"3000-143","latitude":"40.2078139","longitude":"-8.4233611","socket_number":"4","socket_type":"Normal"},
{"uuid":"CBR-00007","municipality":"Coimbra","address":"Rua Do Carmo","localization":"Estação De Caminhos De Ferro (Coimbra A)","postal":"3000-024","latitude":"40.2088556","longitude":"-8.4313666","socket_number":"2","socket_type":"Normal"},
{"uuid":"CBR-00004","municipality":"Coimbra","address":"Alameda Dr. Armando Gonçalves","localization":"Aparc Coimbra","postal":"3000-059","latitude":"40.2152917","longitude":"-8.4133055","socket_number":"4","socket_type":"Normal"},
{"uuid":"CBR-00009","municipality":"Coimbra","address":"Rua Brigadeiro Correia Cardoso","localization":"Junta De Freguesia De Santo António Dos Olivais","postal":"3000-550","latitude":"40.217469","longitude":"-8.404889","socket_number":"2","socket_type":"Normal"},
{"uuid":"CBR-00006","municipality":"Coimbra","address":"Casa Do Sal","localization":"Rotunda Da Casa Do Sal","postal":"3000-473","latitude":"40.2176274","longitude":"-8.4387222","socket_number":"4","socket_type":"Normal"},
{"uuid":"CBR-00021","municipality":"Coimbra","address":"Estrada De Condeixa","localization":"Mondego Retail Park","postal":"3045-001","latitude":"40.19197","longitude":"-8.51091","socket_number":"2","socket_type":"Normal"},
{"uuid":"CBR-00028","municipality":"Coimbra","address":"Rua Pedro Nunes","localization":"Instituto Superior De Engenharia De Coimbra, Rua Pedro Nunes","postal":"3045-093","latitude":"40.192128","longitude":"-8.413002","socket_number":"2","socket_type":"Normal"},
{"uuid":"CBR-00033","municipality":"Coimbra","address":"Prio Energy - Retail Park De Taveiro","localization":"Prio Energy - Retail Park De Taveiro","postal":"3045-444","latitude":"40.192215","longitude":"-8.508202","socket_number":"2","socket_type":"Rápido"},
{"uuid":"CBR-00031","municipality":"Coimbra","address":"Rua 5 De Outubro","localization":"E.s. De Tecnologia Da Saúde De Coimbra, Rua 5 De Outubro","postal":"3045-093","latitude":"40.198379","longitude":"-8.46094","socket_number":"2","socket_type":"Normal"},
{"uuid":"CBR-00029","municipality":"Coimbra","address":"Rua Misericórdia Lagar Dos Cortiços - S. Martinho Do Bispo","localization":"Serviços Centrais Do Politécnico De Coimbra, S. Martinho Do Bispo","postal":"3045-093","latitude":"40.204906","longitude":"-8.453863","socket_number":"2","socket_type":"Normal"},
{"uuid":"CBR-00036","municipality":"Coimbra","address":"-","localization":"Alma Shopping","postal":"3030-327","latitude":"40.205073","longitude":"-8.407703","socket_number":"2","socket_type":"Normal"},
{"uuid":"CBR-00030","municipality":"Coimbra","address":"Rua D.João Iii","localization":"E. S. De Educação De Coimbra, Rua D.jOão Iii","postal":"3045-093","latitude":"40.205076","longitude":"-8.405942","socket_number":"2","socket_type":"Normal"},
{"uuid":"CBR-00027","municipality":"Coimbra","address":"Rua Da Misericórdia","localization":"Instituto Superior De Contabilidade E Administração De Coimbra, Bencanta","postal":"3045-093","latitude":"40.210094","longitude":"-8.453217","socket_number":"2","socket_type":"Normal"},
{"uuid":"CBR-00020","municipality":"Coimbra","address":"Avenida José Bonifácio De Andrade E Silva","localization":"Forum Coimbra (Quinta Do Vale Gemil)","postal":"3044-520","latitude":"40.21131","longitude":"-8.44428","socket_number":"2","socket_type":"Normal"},
{"uuid":"CBR-00025","municipality":"Coimbra","address":"Avenida José Bonifácio Andrade E Silva 1","localization":"Parque De Estacionamento Do Fórum Coimbra","postal":"3044-520","latitude":"40.211371","longitude":"-8.444192","socket_number":"2","socket_type":"Normal"},
{"uuid":"CBR-00026","municipality":"Coimbra","address":"Rua Da Misericórdia","localization":"Escola Superior Agrária De Coimbra, Bencanta","postal":"3045-093","latitude":"40.211719","longitude":"-8.453771","socket_number":"2","socket_type":"Normal"},
{"uuid":"CBR-00005","municipality":"Coimbra","address":"Rua Sílvio Lima","localization":"Universidade De Coimbra ? Pólo Ii","postal":"3000-059","latitude":"40.1861833","longitude":"-8.4140194","socket_number":"4","socket_type":"Normal galp"},
{"uuid":"CBR-00002","municipality":"Coimbra","address":"Rua General Humberto Delgado","localization":"Atrium Solum Centro Comercial","postal":"3030-327","latitude":"40.204911","longitude":"-8.4116","socket_number":"2","socket_type":"Normal galp"},
{"uuid":"CBR-00001","municipality":"Coimbra","address":"Rua Olímpio Nicolau Fernandes","localization":"Mercado Municipal","postal":"3000-303","latitude":"40.2116792","longitude":"-8.4263217","socket_number":"4","socket_type":"Normal galp"},
{"uuid":"CDN-00001","municipality":"Condeixa-A-Nova","address":"Rua D. Ana Laboreiro","localization":"-","postal":"-","latitude":"40.1102778","longitude":"-8.49508333","socket_number":"2","socket_type":"Normal"},
{"uuid":"CNS-00001","municipality":"Constância","address":"Av. Das Forças Armadas","localization":"-","postal":"2250-020","latitude":"39.4748889","longitude":"-8.34030556","socket_number":"2","socket_type":"Normal"},
{"uuid":"CCH-00001","municipality":"Coruche","address":"Parque De Estacionamente Da Praça_x000D_ De Toiros","localization":"-","postal":"2100-115","latitude":"38.9591944","longitude":"-8.52091667","socket_number":"2","socket_type":"Normal"},
{"uuid":"CVL-00002","municipality":"Covilhã","address":"N18","localization":"Covilhã Shopping","postal":"-","latitude":"40.263834","longitude":"-7.490859","socket_number":"3","socket_type":"Rápido"},
{"uuid":"CRT-00001","municipality":"Crato","address":"Largo Dr. Belo Morais","localization":"-","postal":"-","latitude":"39.2876111","longitude":"-7.64533333","socket_number":"2","socket_type":"Normal galp"},
{"uuid":"CBA-00001","municipality":"Cuba","address":"R. De Serpa Pinto","localization":"-","postal":"7940-186","latitude":"38.1630833","longitude":"-7.8945","socket_number":"2","socket_type":"Normal"},
{"uuid":"ELV-00002","municipality":"Elvas","address":"Av. 14 De Janeiro 13","localization":"Vila Galé, Rua Dos Cavaleiros","postal":"7350-092","latitude":"38.880787","longitude":"-7.166914","socket_number":"1","socket_type":"Normal"},
{"uuid":"ELV-00003","municipality":"Elvas","address":"Av. 14 De Janeiro 13","localization":"Vila Galé, Rua Dos Cavaleiros","postal":"7350-092","latitude":"38.880788","longitude":"-7.166915","socket_number":"1","socket_type":"Normal"},
{"uuid":"ELV-00001","municipality":"Elvas","address":"Av Garcia Da Orta Em Elvas","localization":"-","postal":"-","latitude":"38.877432","longitude":"-7.163461","socket_number":"2","socket_type":"Normal"},
{"uuid":"ENT-00002","municipality":"Entroncamento","address":"N3 Entrocamento","localization":"Posto Bp Entroncamento","postal":"-","latitude":"39.461271","longitude":"-8.493708","socket_number":"3","socket_type":"Rápido"},
{"uuid":"ENT-00001","municipality":"Entroncamento","address":"R. Jacinto Marques Agostinho","localization":"-","postal":"-","latitude":"39.4655","longitude":"-8.47187222","socket_number":"2","socket_type":"Normal"},
{"uuid":"ESP-00001","municipality":"Espinho","address":"Aparcadeto Da Av. 24","localization":"-","postal":"4500-217","latitude":"41.0098889","longitude":"-8.63838889","socket_number":"2","socket_type":"Normal"},
{"uuid":"ETR-00001","municipality":"Estarreja","address":"A1 Km 255 (Sentido Norte/Sul)","localization":"Área De Serviço Antuã-Estarreja (Sentido Norte/Sul)","postal":"3865-183","latitude":"40.755307","longitude":"-8.53656","socket_number":"3","socket_type":"Rápido"},
{"uuid":"ETR-00002","municipality":"Estarreja","address":"A1 Km 255 (Sentido Sul/Norte)","localization":"Área De Serviço Antuã-Estarreja (Sentido Sul/Norte)","postal":"3865-183","latitude":"40.75567","longitude":"-8.535197","socket_number":"3","socket_type":"Rápido"},
{"uuid":"ETR-00003","municipality":"Estarreja","address":"R. Da Restauração","localization":"-","postal":"3860-360","latitude":"40.7543056","longitude":"-8.57069444","socket_number":"2","socket_type":"Normal"},
{"uuid":"ETZ-00005","municipality":"Estremoz","address":"Zona Industrial, Apartado 10","localization":"Intermarché De Estremoz","postal":"7100-147","latitude":"38.846977","longitude":"-7.581163","socket_number":"2","socket_type":"Normal"},
{"uuid":"ETZ-00002","municipality":"Estremoz","address":"-","localization":"Rua De Santo André (Junto Ao Tribunal)","postal":"7100-513","latitude":"38.842275","longitude":"-7.587414","socket_number":"3","socket_type":"Rápido"},
{"uuid":"ETZ-00001","municipality":"Estremoz","address":"Rossio Marquês De Pombal,_x000D_ Estremoz","localization":"-","postal":"-","latitude":"38.842931","longitude":"-7.586949","socket_number":"2","socket_type":"Normal"},
{"uuid":"EVR-00008","municipality":"Évora","address":"Rua Da Agricultura","localization":"Pite","postal":"7005-304","latitude":"38.548164","longitude":"-7.914728","socket_number":"2","socket_type":"Normal"},
{"uuid":"EVR-00011","municipality":"Évora","address":"Rua Do Chafariz Del Rei 29","localization":"Estação De Serviço Da Repsol","postal":"7000-002","latitude":"38.566785","longitude":"-7.902409","socket_number":"3","socket_type":"Rápido"},
{"uuid":"EVR-00007","municipality":"Évora","address":"Avenida Infante Dom Henrique","localization":"Parque Hospital Do Patrocínio","postal":"7005-169","latitude":"38.567676","longitude":"-7.9008094","socket_number":"2","socket_type":"Normal"},
{"uuid":"EVR-00005","municipality":"Évora","address":"Avenida Túlio Espanca","localization":"Terminal Rodoviário","postal":"7000-768","latitude":"38.5678086","longitude":"-7.9184955","socket_number":"2","socket_type":"Normal"},
{"uuid":"EVR-00004","municipality":"Évora","address":"Rua Do Lagar Dos Dízimos","localization":"Mercado Municipal","postal":"7000-671","latitude":"38.569473","longitude":"-7.909332","socket_number":"2","socket_type":"Normal"},
{"uuid":"EVR-00009","municipality":"Évora","address":"Rua De Olivença","localization":"Câmara Municipal De Évora ( Loja Ctt)","postal":"7000-999","latitude":"38.5725","longitude":"-7.90972","socket_number":"2","socket_type":"Normal"},
{"uuid":"EVR-00002","municipality":"Évora","address":"Praça Joaquim António De Aguiar","localization":"Praça Joaquim António De Aguiar","postal":"7000-510","latitude":"38.5734115","longitude":"-7.9124375","socket_number":"2","socket_type":"Normal"},
{"uuid":"EVR-00016","municipality":"Évora","address":"Tivoli Evora Ecoresort","localization":"Tivoli Évora Ecoresort","postal":"7000-804","latitude":"38.553163","longitude":"-7.968314","socket_number":"2","socket_type":"Normal"},
{"uuid":"EVR-00014","municipality":"Évora","address":"Avenida Túlio Espanca","localization":"Vila Gale Évora - Avenida Túlio Espanca","postal":"7005-840","latitude":"38.56715","longitude":"-7.915623","socket_number":"1","socket_type":"Normal"},
{"uuid":"EVR-00015","municipality":"Évora","address":"Avenida Túlio Espanca","localization":"Vila Gale Évora - Avenida Túlio Espanca","postal":"7005-840","latitude":"38.567151","longitude":"-7.915624","socket_number":"1","socket_type":"Normal"},
{"uuid":"EVR-00012","municipality":"Évora","address":"Largo Do Conde De Vila Flor, Évora","localization":"Pestana, Largo Do Conde De Vila Flor","postal":"-","latitude":"38.572831","longitude":"-7.907226","socket_number":"1","socket_type":"Normal"},
{"uuid":"EVR-00013","municipality":"Évora","address":"Largo Do Conde De Vila Flor, Évora","localization":"Pestana, Largo Do Conde De Vila Flor","postal":"-","latitude":"38.572832","longitude":"-7.907227","socket_number":"1","socket_type":"Normal"},
{"uuid":"EVR-00006","municipality":"Évora","address":"Avenida General Humberto Delgado","localization":"Parque Da Epral","postal":"7005-158","latitude":"38.566566","longitude":"-7.911757","socket_number":"2","socket_type":"Normal galp"},
{"uuid":"EVR-00003","municipality":"Évora","address":"Rua Cardeal Rei","localization":"Igreja Do Espírito Santo - Évora","postal":"7000-849","latitude":"38.572323","longitude":"-7.90444","socket_number":"2","socket_type":"Normal galp"},
{"uuid":"EVR-00001","municipality":"Évora","address":"Praça Porta Da Lagoa","localization":"Praça Porta Da Lagoa","postal":"7000-749","latitude":"38.57611","longitude":"-7.914444","socket_number":"2","socket_type":"Normal galp"},
{"uuid":"FAF-00004","municipality":"Fafe","address":"R. Dr. José Summavielle Soares 367","localization":"Intermarché Fafe","postal":"4820-253","latitude":"41.44466","longitude":"-8.168125","socket_number":"2","socket_type":"Normal"},
{"uuid":"FAF-00003","municipality":"Fafe","address":"R. Dr. José Summavielle Soares 367","localization":"Intermarché Fafe","postal":"4820-253","latitude":"41.444661","longitude":"-8.168126","socket_number":"3","socket_type":"Rápido"},
{"uuid":"FAF-00001","municipality":"Fafe","address":"Praça Mártires Fascismo","localization":"-","postal":"4820-146","latitude":"41.4524194","longitude":"-8.17162222","socket_number":"2","socket_type":"Normal"},
{"uuid":"FAR-00004","municipality":"Faro","address":"Largo Francisco Sá Carneiro","localization":"Mercado Municipal De Faro","postal":"8000-151","latitude":"37.0197","longitude":"-7.92828","socket_number":"2","socket_type":"Normal galp"},
{"uuid":"FAR-00003","municipality":"Faro","address":"Avenida Da República","localization":"Estação De Caminhos De Ferro","postal":"8000-080","latitude":"37.01791","longitude":"-7.93888","socket_number":"2","socket_type":"Normal galp"},
{"uuid":"FAR-00001","municipality":"Faro","address":"Largo De São Francisco","localization":"Jardim Do Largo De São Francisco","postal":"8000-142","latitude":"37.01325","longitude":"-7.932765","socket_number":"4","socket_type":"Normal"},
{"uuid":"FAR-00002","municipality":"Faro","address":"Avenida Da República","localization":"Hotel Eva","postal":"8000-078","latitude":"37.01672","longitude":"-7.935809","socket_number":"2","socket_type":"Normal"},
{"uuid":"FAR-00006","municipality":"Faro","address":"Estrada Da Penha","localization":"Universidade Do Algarve-Campus Da Penha","postal":"8005-133","latitude":"37.028896","longitude":"-7.924731","socket_number":"4","socket_type":"Normal"},
{"uuid":"FAR-00007","municipality":"Faro","address":"Rua Dos Malmequeres","localization":"Universidade Do Algarve - Campus De Gambelas","postal":"8005-214","latitude":"37.042553","longitude":"-7.970661","socket_number":"4","socket_type":"Normal"},
{"uuid":"FAR-00005","municipality":"Faro","address":"Rua Da Cidade De Bolama","localization":"Hospital Distrital De Faro","postal":"8000-249","latitude":"37.024757","longitude":"-7.930374","socket_number":"2","socket_type":"Normal"},
{"uuid":"FAR-00007","municipality":"Faro","address":"Rua Dos Malmequeres","localization":"Universidade Do Algarve - Campus De Gambelas","postal":"8005-214","latitude":"37.042553","longitude":"-7.970661","socket_number":"4","socket_type":"Normal"},
{"uuid":"FAR-00020","municipality":"Faro","address":"Via Colectora Da En12","localization":"Prio Energy Faro (Marchil)","postal":"-","latitude":"37.037026","longitude":"-7.957174","socket_number":"2","socket_type":"Rápido"},
{"uuid":"FAR-00021","municipality":"Faro","address":"Av. Cidade Hayward","localization":"Av. Cidade Hayward - Posto De Abast. Bp","postal":"8009-126","latitude":"37.025509","longitude":"-7.91758","socket_number":"3","socket_type":"Rápido"},
{"uuid":"FAR-00019","municipality":"Faro","address":"En 125, Km 103 - Pontes De Marchil","localization":"Parque De Estacionamento Do Fórum Algarve (Piso 0)","postal":"8009-020","latitude":"37.027809","longitude":"-7.944625","socket_number":"2","socket_type":"Normal"},
{"uuid":"FAR-00015","municipality":"Faro","address":"En 125 Km 103","localization":"Forum Algarve","postal":"8000-126","latitude":"37.02783","longitude":"-7.94447","socket_number":"2","socket_type":"Normal"},
{"uuid":"FAR-00024","municipality":"Faro","address":"Prio Energy Faro (Marchil)","localization":"Prio Energy Faro (Marchil)","postal":"8000-143","latitude":"37.037057","longitude":"-7.95702","socket_number":"2","socket_type":"Rápido"},
{"uuid":"FAR-00016","municipality":"Faro","address":"Via Colectora Da En125-10","localization":"Prio Energy Faro (Marchil)","postal":"8000-510","latitude":"37.0371","longitude":"-7.957042","socket_number":"2","socket_type":"Normal"},
{"uuid":"FAR-00022","municipality":"Faro","address":"Rua De São José, Faro","localization":"Pestana, Rua De São José","postal":"-","latitude":"37.09676","longitude":"-7.895238","socket_number":"1","socket_type":"Normal"},
{"uuid":"FAR-00023","municipality":"Faro","address":"Rua De São José, Faro","localization":"Pestana, Rua De São José","postal":"-","latitude":"37.096761","longitude":"-7.895239","socket_number":"1","socket_type":"Normal"},
{"uuid":"FAR-00025","municipality":"Faro","address":"Lugar Areal Gordo","localization":"Makro Faro","postal":"8004-075","latitude":"37.036174","longitude":"-7.896936","socket_number":"2","socket_type":"Normal galp"},
{"uuid":"FAR-00008","municipality":"Faro","address":"Largo São Francisco","localization":"-","postal":"-","latitude":"37.012269","longitude":"-7.932681","socket_number":"2","socket_type":"Normal"},
{"uuid":"FLG-00001","municipality":"Felgueiras","address":"Praça Dr. Machado De Matos","localization":"Praça Dr. Machado De Matos","postal":"4610-117","latitude":"41.363056","longitude":"-8.198611","socket_number":"2","socket_type":"Normal"},
{"uuid":"FZZ-00001","municipality":"Ferreira Do Zêzere","address":"R. Do Casal De Além","localization":"-","postal":"-","latitude":"39.6938611","longitude":"-8.29341667","socket_number":"2","socket_type":"Normal"},
{"uuid":"FAL-00001","municipality":"Ferreira Do_X000D_ Alentejo","address":"Largo Dom Luís Maldonado Vivião_x000D_ Passanha","localization":"-","postal":"-","latitude":"38.0586667","longitude":"-8.11308333","socket_number":"2","socket_type":"Normal"},
{"uuid":"FIG-00002","municipality":"Figueira Da Foz","address":"Av. Saraiva De Carvalho","localization":"Paços Do Concelho","postal":"3084-501","latitude":"40.147871","longitude":"-8.854044","socket_number":"3","socket_type":"Rápido"},
{"uuid":"FIG-00001","municipality":"Figueira Da Foz","address":"Av. Saraiva De Carvalho","localization":"-","postal":"3080-051","latitude":"40.1478611","longitude":"-8.85405556","socket_number":"2","socket_type":"Normal galp"},
{"uuid":"FCR-00001","municipality":"Figueira De Castelo Rodrigo","address":"Av. 25 Abril","localization":"-","postal":"6440-909","latitude":"40.8948056","longitude":"-6.96293056","socket_number":"2","socket_type":"Normal"},
{"uuid":"FVN-00001","municipality":"Figueiró Dos Vinhos","address":"Rua Do Mercado","localization":"-","postal":"3260-411","latitude":"39.9013056","longitude":"-8.27319444","socket_number":"2","socket_type":"Normal galp"},
{"uuid":"FAG-00001","municipality":"Fornos De_X000D_ Algodres","address":"Em587-4 93-65","localization":"-","postal":"-","latitude":"40.6196667","longitude":"-7.53947222","socket_number":"2","socket_type":"Normal"},
{"uuid":"FTR-00001","municipality":"Fronteira","address":"Largo Marquês Da Fronteira","localization":"-","postal":"7460-136","latitude":"39.0538611","longitude":"-7.64525","socket_number":"2","socket_type":"Normal"},
{"uuid":"FUN-00002","municipality":"Funchal","address":"Avenida Do Mar E Das Comunidades Madeirenses 32","localization":"Avenida Sá Carneiro, Lado Sul, Perto Da Rotunda Sá Carneiro","postal":"9064-501","latitude":"32.645245","longitude":"-16.912966","socket_number":"3","socket_type":"Rápido"},
{"uuid":"FUN-00001","municipality":"Funchal","address":"Rua Artur De Sousa Pinga","localization":"Electricidade Da Madeira","postal":"9060-396","latitude":"32.64723","longitude":"-16.903893","socket_number":"2","socket_type":"Normal"},
{"uuid":"FND-00002","municipality":"Fundão","address":"A23 Km 18.5 (Sentido Este/Oeste)","localization":"Área De Serviço Fundão (Sentido Este/Oeste)","postal":"6230-022","latitude":"40.190234","longitude":"-7.487413","socket_number":"3","socket_type":"Rápido"},
{"uuid":"FND-00003","municipality":"Fundão","address":"A23 Km 18.5 (Sentido Oeste/Este)","localization":"Área De Serviço Fundão (Sentido Oeste/Eeste)","postal":"6230-022","latitude":"40.190859","longitude":"-7.487413","socket_number":"3","socket_type":"Rápido"},
{"uuid":"GAV-00001","municipality":"Gavião","address":"R. Eugénio Maleitas","localization":"-","postal":"6040-120","latitude":"39.4646667","longitude":"-7.93791667","socket_number":"2","socket_type":"Normal"},
{"uuid":"GOI-00001","municipality":"Góis","address":"Av. Eng. Augusto Nogueira Pereira","localization":"-","postal":"3330-209","latitude":"40.1632889","longitude":"-8.10888056","socket_number":"2","socket_type":"Normal"},
{"uuid":"GLG-00001","municipality":"Golegã","address":"Largo Da Imac. Conceição","localization":"-","postal":"2150-125","latitude":"39.4012778","longitude":"-8.48630556","socket_number":"2","socket_type":"Normal"},
{"uuid":"GDL-00002","municipality":"Grândola","address":"Alameda Do Salgueiro","localization":"Alameda Do Salgueiro","postal":"7570-789","latitude":"38.492475","longitude":"-8.90061","socket_number":"2","socket_type":"Normal"},
{"uuid":"GDL-00001","municipality":"Grândola","address":"R. Dom Nuno Álvares Pereira","localization":"-","postal":"7570-789","latitude":"38.1825556","longitude":"-8.56730556","socket_number":"2","socket_type":"Normal"},
{"uuid":"GRD-00003","municipality":"Guarda","address":"Avenida Do Estádio Municipal","localization":"Estádio Municipal Da Guarda","postal":"6300-705","latitude":"40.53755","longitude":"-7.27709","socket_number":"2","socket_type":"Normal"},
{"uuid":"GRD-00002","municipality":"Guarda","address":"Rua Marquês De Pombal","localization":"Estação De Correios Da Guarda","postal":"6300-698","latitude":"40.537571","longitude":"-7.266367","socket_number":"2","socket_type":"Normal"},
{"uuid":"GRD-00004","municipality":"Guarda","address":"Avenida De São Miguel","localization":"Guarda Gare","postal":"6300-865","latitude":"40.55095","longitude":"-7.2461","socket_number":"2","socket_type":"Normal"},
{"uuid":"GRD-00005","municipality":"Guarda","address":"Avenida Dos Bombeiros Voluntários Egitanienses","localization":"Vivaci Centro Comercial","postal":"6300-523","latitude":"40.541485","longitude":"-7.267413","socket_number":"2","socket_type":"Normal galp"},
{"uuid":"GRD-00001","municipality":"Guarda","address":"Praça Do Município","localization":"Praça Do Município","postal":"6300-736","latitude":"40.53589","longitude":"-7.267167","socket_number":"2","socket_type":"Normal galp"},
{"uuid":"GMR-00005","municipality":"Guimarães","address":"Avenida Dom Afonso Henriques","localization":"Edp Guimarães","postal":"4810-431","latitude":"41.4386111","longitude":"-8.2952777","socket_number":"2","socket_type":"Normal"},
{"uuid":"GMR-00012","municipality":"Guimarães","address":"Alameda Mariano Felgueiras","localization":"Parque Adjacente Ao Hospital De Guimarães","postal":"4835-075","latitude":"41.4413","longitude":"-8.3042666","socket_number":"2","socket_type":"Normal"},
{"uuid":"GMR-00003","municipality":"Guimarães","address":"Largo António Leite De Carvalho","localization":"Largo António Leite De Carvalho","postal":"4800-153","latitude":"41.44167","longitude":"-8.29498","socket_number":"2","socket_type":"Normal"},
{"uuid":"GMR-00002","municipality":"Guimarães","address":"Rua Val De Donas","localization":"Estação De Correios De Guimarães","postal":"4800-476","latitude":"41.4445","longitude":"-8.29428","socket_number":"2","socket_type":"Normal"},
{"uuid":"GMR-00014","municipality":"Guimarães","address":"Alameda Doutor Alfredo Pimenta","localization":"Parque Estacionamento Escola Secundária Francisco De Holanda","postal":"4810-420","latitude":"41.4448577","longitude":"-8.2978877","socket_number":"2","socket_type":"Normal"},
{"uuid":"GMR-00016","municipality":"Guimarães","address":"Alameda Dr. Alfredo Pimenta 197","localization":"Parque De Estacionamento Francisco De Holanda","postal":"4810-525","latitude":"41.444999","longitude":"-8.29803","socket_number":"3","socket_type":"Rápido"},
{"uuid":"GMR-00006","municipality":"Guimarães","address":"Alameda Da Universidade","localization":"Universidade Do Minho (Escola De Engenharia)","postal":"4800-019","latitude":"41.45057","longitude":"-8.29395","socket_number":"2","socket_type":"Normal"},
{"uuid":"GMR-00022","municipality":"Guimarães","address":"Rua Do Pinheiro Manso Nº 443","localization":"Intermarché Urgezes","postal":"4810-107","latitude":"41.423854","longitude":"-8.299072","socket_number":"2","socket_type":"Normal"},
{"uuid":"GMR-00021","municipality":"Guimarães","address":"Rua Do Pinheiro Manso Nº 443","localization":"Intermarché Urgezes","postal":"4810-107","latitude":"41.423855","longitude":"-8.299073","socket_number":"3","socket_type":"Rápido"},
{"uuid":"GMR-00015","municipality":"Guimarães","address":"Rua Rod. De Covas (N105)","localization":"Mcdonald's Guimarães Drive - Rodovia","postal":"4810-482","latitude":"41.431565","longitude":"-8.301691","socket_number":"2","socket_type":"Normal"},
{"uuid":"GMR-00001","municipality":"Guimarães","address":"Rua Condestável Nuno Álvares","localization":"Tribunal Da Comarca De Guimarães","postal":"4800-437","latitude":"41.444724","longitude":"-8.291389","socket_number":"2","socket_type":"Normal"},
{"uuid":"GMR-00020","municipality":"Guimarães","address":"Rua 25 De Abril","localization":"Espaço Guimarães","postal":"4835-400","latitude":"41.44827","longitude":"-8.34279","socket_number":"2","socket_type":"Normal"},
{"uuid":"GMR-00007","municipality":"Guimarães","address":"Estação De Comboios","localization":"Estação De Comboios De Guimarães","postal":"4810-531","latitude":"41.4352683","longitude":"-8.2937219","socket_number":"4","socket_type":"Normal galp"},
{"uuid":"HRT-00001","municipality":"Horta","address":"Estrada Príncipe Alberto Do Mónaco","localization":"Pa Horta / Frederico Humberto Rodrigues, Lda.","postal":"9800-038","latitude":"38.528622222222","longitude":"-28.629761111111","socket_number":"Carrega 2 VE's em simultâneo (DC ou AC)","socket_type":"Rápido galp"},
{"uuid":"LGA-00004","municipality":"Lagoa","address":"Prio Energy - Reta Vale De Deus, En125","localization":"Prio Energy - Reta Vale De Deus, E125","postal":"8400-123","latitude":"37.136284","longitude":"-8.466299","socket_number":"2","socket_type":"Rápido"},
{"uuid":"LGA-00003","municipality":"Lagoa","address":"Parque Industrial Do Pateiro, Lote 1","localization":"Loja Tibi - Parchal","postal":"8400-651","latitude":"37.141688","longitude":"-8.505373","socket_number":"2","socket_type":"Normal"},
{"uuid":"LGA-00005","municipality":"Lagoa","address":"Pestana Golf Resort Gramacho","localization":"Pestana Golf Resort Gramacho","postal":"8401-908","latitude":"37.124769","longitude":"-8.487488","socket_number":"2","socket_type":"Normal"},
{"uuid":"LGA-00006","municipality":"Lagoa","address":"Pestana Golf Resort Vale Da Pinta","localization":"Pestana Golf Resort Vale Da Pinta","postal":"8401-908","latitude":"37.132081","longitude":"-8.478937","socket_number":"2","socket_type":"Normal"},
{"uuid":"LGS-00004","municipality":"Lagos","address":"Lugar Da Pedra Alçada - Ameijeira Verde","localization":"Intermarché De Lagos","postal":"8600-546","latitude":"37.100086","longitude":"-8.683575","socket_number":"2","socket_type":"Normal"},
{"uuid":"LGS-00009","municipality":"Lagos","address":"Lugar Da Pedra Alçada - Ameijeira Verde","localization":"Intermarché","postal":"8600-546","latitude":"37.10016","longitude":"-8.683996","socket_number":"2","socket_type":"Rápido"},
{"uuid":"LGS-00006","municipality":"Lagos","address":"Rua Sophia De Melo Breyner Andresen","localization":"Vila Galé","postal":"8600-295","latitude":"37.113274","longitude":"-8.661754","socket_number":"1","socket_type":"Normal"},
{"uuid":"LGS-00007","municipality":"Lagos","address":"Rua Sophia De Melo Breyner Andresen","localization":"Vila Galé","postal":"8600-295","latitude":"37.113275","longitude":"-8.661755","socket_number":"1","socket_type":"Normal"},
{"uuid":"LGS-00003","municipality":"Lagos","address":"A22 - Km 4,350 - Via Do Infante","localization":"A.s. Lagos (E/O)","postal":"8600-000","latitude":"37.148337","longitude":"-8.702792","socket_number":"Carrega 1 VE em DC ou AC","socket_type":"Rápido galp"},
{"uuid":"LGS-00002","municipality":"Lagos","address":"A22 - Km 4,350 - Via Do Infante","localization":"A.s. Lagos (O/E)","postal":"8600-000","latitude":"37.148927","longitude":"-8.703994","socket_number":"Carrega 1 VE em DC ou AC","socket_type":"Rápido galp"},
{"uuid":"LGF-00001","municipality":"Lajes Das Flores","address":"Travessa Da Cruz, Nº 2 - Lajes Das Flores","localization":"Pa Lajes Das Flores / João Germano De Deus & Filho, Lda.","postal":"9960-439","latitude":"39.379024","longitude":"-31.181553","socket_number":"Carrega 2 VE's em simultâneo (DC ou AC)","socket_type":"Rápido galp"},
{"uuid":"LMG-00001","municipality":"Lamego","address":"Avenida Doutor Alfredo Sousa","localization":"Santuário De Nossa Senhora Dos Remédios","postal":"5100-066","latitude":"41.094172","longitude":"-7.811667","socket_number":"2","socket_type":"Normal"},
{"uuid":"LRA-00011","municipality":"Leiria","address":"Rua Da Assunção","localization":"Skate Park","postal":"2410-068","latitude":"39.7341","longitude":"-8.79765","socket_number":"2","socket_type":"Normal galp"},
{"uuid":"LRA-00003","municipality":"Leiria","address":"Rua Olimpio Duarte Alves","localization":"Estação Dos Caminhos De Ferro (Leiria)","postal":"2415-430","latitude":"39.756523","longitude":"-8.827051","socket_number":"2","socket_type":"Normal galp"},
{"uuid":"LRA-00012","municipality":"Leiria","address":"A1 Km 125,7 (Sentido Norte/Sul)","localization":"Área De Serviço Leiria (Sentido Norte/Sul)","postal":"2410-592","latitude":"39.712365","longitude":"-8.7113","socket_number":"3","socket_type":"Rápido"},
{"uuid":"LRA-00013","municipality":"Leiria","address":"A1 Km 125,7 (Sentido Sul/Norte)","localization":"Área De Serviço Leiria (Sentido Sul/Norte)","postal":"2410-592","latitude":"39.713412","longitude":"-8.709663","socket_number":"3","socket_type":"Rápido"},
{"uuid":"LRA-00014","municipality":"Leiria","address":"Rua Da Maceira, Cruz De São Tomé","localization":"Bp Rua Da Maceira, Cruz De São Tomé","postal":"2400-828","latitude":"39.71469","longitude":"-8.83269","socket_number":"3","socket_type":"Rápido"},
{"uuid":"LRA-00009","municipality":"Leiria","address":"Rua Luís Silveira Charters Azevedo","localization":"Centro De Saúde Doutor Gorjão Henriques","postal":"2400-022","latitude":"39.7368278","longitude":"-8.8107944","socket_number":"2","socket_type":"Normal"},
{"uuid":"LRA-00010","municipality":"Leiria","address":"Avenida Nossa Senhora De Fátima","localization":"Avenida Nossa Sra. De Fátima","postal":"2410-140","latitude":"39.73905","longitude":"-8.80232","socket_number":"2","socket_type":"Normal"},
{"uuid":"LRA-00008","municipality":"Leiria","address":"Rua Doutor João Soares","localization":"Rua Doutor João Soares","postal":"2400-448","latitude":"39.739746","longitude":"-8.812549","socket_number":"4","socket_type":"Normal"},
{"uuid":"LRA-00007","municipality":"Leiria","address":"Largo Da República","localization":"Câmara Municipal De Leiria","postal":"2400-137","latitude":"39.741114","longitude":"-8.80974","socket_number":"2","socket_type":"Normal"},
{"uuid":"LRA-00006","municipality":"Leiria","address":"Avenida Heróis De Angola","localization":"Avenida Heróis De Angola","postal":"2400-258","latitude":"39.747112","longitude":"-8.804251","socket_number":"4","socket_type":"Normal"},
{"uuid":"LRA-00004","municipality":"Leiria","address":"Avenida 22 De Maio","localization":"Parque De Estacionamento Da Feira De Maio","postal":"2415-396","latitude":"39.7516","longitude":"-8.80917","socket_number":"2","socket_type":"Normal"},
{"uuid":"LRA-00001","municipality":"Leiria","address":"Rua Francisco Clemente","localization":"Escola Secundária Afonso Lopes Vieira","postal":"2419-004","latitude":"39.76248","longitude":"-8.82338","socket_number":"2","socket_type":"Normal"},
{"uuid":"LRA-00005","municipality":"Leiria","address":"Via Do Polis Leiria","localization":"Estádio Dr. Magalhães Pessoa","postal":"2400-265","latitude":"39.750083","longitude":"-8.809439","socket_number":"6","socket_type":"Normal galp"},
{"uuid":"LRA-00002","municipality":"Leiria","address":"Estrada da Mata","localization":"Junta De Freguesia De Marrazes","postal":"2415-508","latitude":"39.76361","longitude":"-8.80662","socket_number":"2","socket_type":"Normal"},
{"uuid":"LSB-00201","municipality":"Lisboa","address":"Rua João De Oliveira Miguéns","localization":"Alcântara","postal":"1300-255","latitude":"38.705214","longitude":"-9.174461","socket_number":"3","socket_type":"Rápido"},
{"uuid":"LSB-00200","municipality":"Lisboa","address":"Avenida Marechal Craveiro Lopes","localization":"Hotel Radisson","postal":"1700-162","latitude":"38.759707","longitude":"-9.153599","socket_number":"3","socket_type":"Rápido"},
{"uuid":"LSB-01532","municipality":"Lisboa","address":"Avenida Marechal Craveiro Lopes","localization":"Estação De Serviço Repsol 2ª Circular - Lado Sul","postal":"1700-284","latitude":"38.762893","longitude":"-9.14107","socket_number":"3","socket_type":"Rápido"},
{"uuid":"LSB-01529","municipality":"Lisboa","address":"Estrada Forte Da Ameixoeira Lote 29.1","localization":"Bomba Prio.e","postal":"1750-224","latitude":"38.784233","longitude":"-9.143788","socket_number":"2","socket_type":"Rápido"},
{"uuid":"LSB-00003","municipality":"Lisboa","address":"Doca Do Bom Sucesso","localization":"Vela Latina","postal":"1400-038","latitude":"38.693471","longitude":"-9.213441","socket_number":"2","socket_type":"Normal"},
{"uuid":"LSB-00001","municipality":"Lisboa","address":"Avenida Torre De Belém","localization":"Avenida Torre De Belém-Erse","postal":"1400-038","latitude":"38.6948528","longitude":"-9.2151027","socket_number":"2","socket_type":"Normal"},
{"uuid":"LSB-00531","municipality":"Lisboa","address":"Travessa Dos Escaleres","localization":"Parque Da Travessa Dos Escaleres","postal":"1300-225","latitude":"38.696822","longitude":"-9.193328","socket_number":"6","socket_type":"Normal"},
{"uuid":"LSB-00530","municipality":"Lisboa","address":"Travessa Dos Escaleres","localization":"Parque Travessa Dos Escaleres","postal":"1300-225","latitude":"38.696842","longitude":"-9.193172","socket_number":"6","socket_type":"Normal"},
{"uuid":"LSB-00510","municipality":"Lisboa","address":"Rua De Belém","localization":"Parque Belém I","postal":"1300-084","latitude":"38.697297","longitude":"-9.204119","socket_number":"6","socket_type":"Normal"},
{"uuid":"LSB-00500","municipality":"Lisboa","address":"Avenida Da Índia","localization":"Parque Algés","postal":"1400-000","latitude":"38.697578","longitude":"-9.22615","socket_number":"6","socket_type":"Normal"},
{"uuid":"LSB-00501","municipality":"Lisboa","address":"Avenida Da Índia","localization":"Parque Algés","postal":"1400-000","latitude":"38.697656","longitude":"-9.226303","socket_number":"6","socket_type":"Normal"},
{"uuid":"LSB-00028","municipality":"Lisboa","address":"Travessa Do Conde Da Ponte","localization":"Centro De Congressos De Lisboa (Antiga Fil)","postal":"1300-141","latitude":"38.699608","longitude":"-9.180961","socket_number":"2","socket_type":"Normal"},
{"uuid":"LSB-00216","municipality":"Lisboa","address":"Travessa Do Conde Da Ponte","localization":"Vila Galé, Travessa Do Conde Da Ponte","postal":"1300-141","latitude":"38.700009","longitude":"-9.180697","socket_number":"1","socket_type":"Normal"},
{"uuid":"LSB-00217","municipality":"Lisboa","address":"Travessa Do Conde Da Ponte","localization":"Vila Galé, Travessa Do Conde Da Ponte","postal":"1300-141","latitude":"38.700008","longitude":"-9.180696","socket_number":"1","socket_type":"Normal"},
{"uuid":"LSB-00218","municipality":"Lisboa","address":"Calçada Santo Amaro","localization":"Doca De Santo Amaro Armazém 8","postal":"1350-353","latitude":"38.700107","longitude":"-9.177893","socket_number":"2","socket_type":"Normal"},
{"uuid":"LSB-00219","municipality":"Lisboa","address":"Calçada Santo Amaro","localization":"Doca De Santo Amaro, Armazém 8 - Piso 1","postal":"1350-353","latitude":"38.700106","longitude":"-9.177894","socket_number":"2","socket_type":"Rápido"},
{"uuid":"LSB-00163","municipality":"Lisboa","address":"Avenida Brasília","localization":"Museu Do Oriente","postal":"1350-352","latitude":"38.70297","longitude":"-9.168994","socket_number":"2","socket_type":"Normal"},
{"uuid":"LSB-00007","municipality":"Lisboa","address":"Rua Gonçalves Zarco","localization":"Ministério Da Defesa Nacional","postal":"1400-190","latitude":"38.703464","longitude":"-9.206658","socket_number":"4","socket_type":"Normal"},
{"uuid":"LSB-00017","municipality":"Lisboa","address":"Travessa Da Boa-Hora À Ajuda","localization":"Hospital Militar De Belém","postal":"1249-099","latitude":"38.703903","longitude":"-9.193986","socket_number":"2","socket_type":"Normal"},
{"uuid":"LSB-00074","municipality":"Lisboa","address":"Jardim 9 De Abril","localization":"Museu Arte Antiga","postal":"1200-736","latitude":"38.704317","longitude":"-9.16235","socket_number":"4","socket_type":"Normal"},
{"uuid":"LSB-00024","municipality":"Lisboa","address":"Rua Pedro Calmon","localization":"Jardim Alto Santo Amaro","postal":"1300-456","latitude":"38.7049188","longitude":"-9.1856101","socket_number":"2","socket_type":"Normal"},
{"uuid":"LSB-00048","municipality":"Lisboa","address":"Rua Leão De Oliveira","localization":"Mercado De Alcântara","postal":"1300-350","latitude":"38.705278","longitude":"-9.178808","socket_number":"2","socket_type":"Normal"},
{"uuid":"LSB-00021","municipality":"Lisboa","address":"Calçada Da Tapada","localization":"Escola Francisco De Arruda","postal":"1300-551","latitude":"38.705875","longitude":"-9.186453","socket_number":"2","socket_type":"Normal"},
{"uuid":"LSB-00049","municipality":"Lisboa","address":"Rua José Dias Coelho","localization":"Igreja Paroquial De São Pedro De Alcântara","postal":"1300-329","latitude":"38.705986","longitude":"-9.177589","socket_number":"2","socket_type":"Normal"},
{"uuid":"LSB-00006","municipality":"Lisboa","address":"Avenida Ilha Da Madeira","localization":"Museu De Etnologia","postal":"1400-204","latitude":"38.706847","longitude":"-9.208261","socket_number":"2","socket_type":"Normal"},
{"uuid":"LSB-00054","municipality":"Lisboa","address":"Largo Das Necessidades","localization":"Palácio Das Necessidades","postal":"1350-215","latitude":"38.706917","longitude":"-9.171578","socket_number":"2","socket_type":"Normal"},
{"uuid":"LSB-00014","municipality":"Lisboa","address":"Rua Dom Luís I","localization":"Parque De Estacionamento Do Edifício Sede Edp (Piso -3)","postal":"1200-066","latitude":"38.707577","longitude":"-9.148911","socket_number":"2","socket_type":"Normal"},
{"uuid":"LSB-00015","municipality":"Lisboa","address":"Rua Dom Luís I","localization":"Parque De Estacionamento Do Edifício Sede Edp (Piso -3)","postal":"1200-066","latitude":"38.707578","longitude":"-9.148912","socket_number":"2","socket_type":"Normal"},
{"uuid":"LSB-00070","municipality":"Lisboa","address":"Rua Dom Luís I","localization":"Parque De Estacionamento Edifício Sede Edp","postal":"1200-066","latitude":"38.707575","longitude":"-9.148913","socket_number":"1","socket_type":"Normal"},
{"uuid":"LSB-00071","municipality":"Lisboa","address":"Rua Dom Luís I","localization":"Parque De Estacionamento Edifício Sede Edp","postal":"1200-066","latitude":"38.707576","longitude":"-9.148914","socket_number":"1","socket_type":"Normal"},
{"uuid":"LSB-00142","municipality":"Lisboa","address":"Praça General Domingos De Oliveira","localization":"Estação Alcântara Terra","postal":"1300-125","latitude":"38.70763","longitude":"-9.173658","socket_number":"2","socket_type":"Normal"},
{"uuid":"LSB-00175","municipality":"Lisboa","address":"Rua Do Comércio","localization":"Praça Do Município - Rua Do Comércio","postal":"1100-149","latitude":"38.708359","longitude":"-9.138632","socket_number":"2","socket_type":"Normal"},
{"uuid":"LSB-00091","municipality":"Lisboa","address":"Avenida D. Carlos I","localization":"Câmara Municipal De Lisboa - Regimento De Sapadores De Bombeiros","postal":"1200-650","latitude":"38.709528","longitude":"-9.153297","socket_number":"2","socket_type":"Normal"},
{"uuid":"LSB-00110","municipality":"Lisboa","address":"Rua António Maria Cardoso","localization":"Teatro Municipal São Luiz","postal":"1200-027","latitude":"38.709672","longitude":"-9.14245","socket_number":"2","socket_type":"Normal"},
{"uuid":"LSB-00301","municipality":"Lisboa","address":"Av. Helen Keller","localization":"Galpgeste - A.s. Ajuda","postal":"1400-081","latitude":"38.71028","longitude":"-9.20445","socket_number":"Carrega 1 VE em DC ou AC","socket_type":"Rápido galp"},
{"uuid":"LSB-01130","municipality":"Lisboa","address":"Beco Da Atafona","localization":"Parque Emel - Mercado Chão Loureiro","postal":"1100-046","latitude":"38.712237","longitude":"-9.13535","socket_number":"2","socket_type":"Normal"},
{"uuid":"LSB-01131","municipality":"Lisboa","address":"Beco Da Atafona","localization":"Parque Emel - Mercado Chão Loureiro","postal":"1100-046","latitude":"38.712238","longitude":"-9.13534","socket_number":"6","socket_type":"Normal"},
{"uuid":"LSB-01132","municipality":"Lisboa","address":"Beco Da Atafona","localization":"Parque Emel - Mercado Chão Loureiro","postal":"1100-046","latitude":"38.712239","longitude":"-9.13533","socket_number":"6","socket_type":"Normal"},
{"uuid":"LSB-01133","municipality":"Lisboa","address":"Beco Da Atafona","localization":"Parque Emel - Mercado Chão Loureiro","postal":"1100-046","latitude":"38.712236","longitude":"-9.13532","socket_number":"6","socket_type":"Normal"},
{"uuid":"LSB-01134","municipality":"Lisboa","address":"Beco Da Atafona","localization":"Parque Emel - Mercado Chão Loureiro","postal":"1100-046","latitude":"38.712235","longitude":"-9.13536","socket_number":"6","socket_type":"Normal"},
{"uuid":"LSB-01135","municipality":"Lisboa","address":"Beco Da Atafona","localization":"Parque Emel - Mercado Chão Loureiro","postal":"1100-046","latitude":"38.712234","longitude":"-9.13537","socket_number":"6","socket_type":"Normal"},
{"uuid":"LSB-01140","municipality":"Lisboa","address":"Rua De O Século","localization":"Garagem Maote","postal":"1200-269","latitude":"38.712261","longitude":"-9.147611","socket_number":"6","socket_type":"Normal"},
{"uuid":"LSB-00132","municipality":"Lisboa","address":"Largo Do Museu De Artilharia","localization":"Museu Militar","postal":"1100-366","latitude":"38.712286","longitude":"-9.124522","socket_number":"2","socket_type":"Normal"},
{"uuid":"LSB-00143","municipality":"Lisboa","address":"Praça Da Estrela","localization":"Basílica Da Estrela","postal":"1200-694","latitude":"38.7128851","longitude":"-9.1600742","socket_number":"2","socket_type":"Normal"},
{"uuid":"LSB-00016","municipality":"Lisboa","address":"Avenida Da Universidade Técnica","localization":"Universidade Técnica De Lisboa - Iscsp","postal":"1300-666","latitude":"38.7137","longitude":"-9.197956","socket_number":"6","socket_type":"Normal"},
{"uuid":"LSB-00133","municipality":"Lisboa","address":"Campo De Santa Clara","localization":"Panteão Nacional","postal":"1100-469","latitude":"38.715108","longitude":"-9.124122","socket_number":"2","socket_type":"Normal"},
{"uuid":"LSB-00002","municipality":"Lisboa","address":"Rua Lucília Do Carmo","localization":"Escola Básica De Caselas","postal":"1400-399","latitude":"38.715161","longitude":"-9.214125","socket_number":"2","socket_type":"Normal"},
{"uuid":"LSB-00076","municipality":"Lisboa","address":"Rua Domingos Sequeira","localization":"Escola De Pedro Nunes","postal":"1350-122","latitude":"38.715517","longitude":"-9.163522","socket_number":"2","socket_type":"Normal"},
{"uuid":"LSB-01505","municipality":"Lisboa","address":"Praça Dos Restauradores","localization":"Parque De Estacionamento Dos Restauradores","postal":"1250-188","latitude":"38.716272","longitude":"-9.141873","socket_number":"2","socket_type":"Normal"},
{"uuid":"LSB-00178","municipality":"Lisboa","address":"Avenida Da Liberdade","localization":"Junto À Praça Dos Restauradores (Lado Este)","postal":"1250-144","latitude":"38.716749","longitude":"-9.141966","socket_number":"2","socket_type":"Normal"},
{"uuid":"LSB-00289","municipality":"Lisboa","address":"R. Damasceno Monteiro 2","localization":"Parque De Est. Da Graça","postal":"1170-165","latitude":"38.716819","longitude":"-9.128867","socket_number":"2","socket_type":"Normal"},
{"uuid":"LSB-00290","municipality":"Lisboa","address":"R. Damasceno Monteiro 2","localization":"Parque De Est. Da Graça","postal":"1170-165","latitude":"38.716818","longitude":"-9.128866","socket_number":"2","socket_type":"Normal"},
{"uuid":"LSB-00128","municipality":"Lisboa","address":"Largo Da Graça","localization":"Largo Da Graça, Nº 58","postal":"1170-165","latitude":"38.716889","longitude":"-9.130023","socket_number":"2","socket_type":"Normal"},
{"uuid":"LSB-00023","municipality":"Lisboa","address":"Estrada Do Alvito","localization":"Parque Infantil Do Alvito (Monsanto)","postal":"1300-054","latitude":"38.719436","longitude":"-9.1857","socket_number":"2","socket_type":"Normal"},
{"uuid":"LSB-01510","municipality":"Lisboa","address":"Rua D. João V Nº 24, 1.01","localization":"Espaço Amoreiras - Centro Empresarial","postal":"1250-091","latitude":"38.720696","longitude":"-9.159881","socket_number":"2","socket_type":"Normal"},
{"uuid":"LSB-00213","municipality":"Lisboa","address":"Rua Dom João V","localization":"Espaço Amoreiras","postal":"1250-096","latitude":"38.720908","longitude":"-9.159774","socket_number":"3","socket_type":"Normal"},